[
  {
    "facility":"CLEAN HARBORS EL DORADO LLC",
    "year":2013,
    "address":"309 AMERICAN CIR UNION",
    "city":"EL DORADO",
    "state":"AR",
    "zipcode":71730,
    "latitude":33.206736,
    "longitude":-92.631055,
    "total_release":0.022,
    "radius":1
  },
  {
    "facility":"CLEAN HARBORS EL DORADO LLC",
    "year":2014,
    "address":"309 AMERICAN CIR UNION",
    "city":"EL DORADO",
    "state":"AR",
    "zipcode":71730,
    "latitude":33.206736,
    "longitude":-92.631055,
    "total_release":0.02915,
    "radius":1
  },
  {
    "facility":"CLEAN HARBORS ARAGONITE LLC",
    "year":2014,
    "address":"11600 N APTUS RD",
    "city":"GRANTSVILLE",
    "state":"UT",
    "zipcode":84029,
    "latitude":40.599942,
    "longitude":-112.464399,
    "total_release":0.33,
    "radius":1
  },
  {
    "facility":"CLEAN HARBORS EL DORADO LLC",
    "year":2011,
    "address":"309 AMERICAN CIR UNION",
    "city":"EL DORADO",
    "state":"AR",
    "zipcode":71730,
    "latitude":33.206736,
    "longitude":-92.631055,
    "total_release":0.8,
    "radius":1
  },
  {
    "facility":"CLEAN HARBORS ARAGONITE LLC",
    "year":2003,
    "address":"11600 N APTUS RD",
    "city":"GRANTSVILLE",
    "state":"UT",
    "zipcode":84029,
    "latitude":40.599942,
    "longitude":-112.464399,
    "total_release":0.99,
    "radius":1
  },
  {
    "facility":"CLEAN HARBORS ARAGONITE LLC",
    "year":2009,
    "address":"11600 N APTUS RD",
    "city":"GRANTSVILLE",
    "state":"UT",
    "zipcode":84029,
    "latitude":40.599942,
    "longitude":-112.464399,
    "total_release":1,
    "radius":1
  },
  {
    "facility":"CLEAN HARBORS ARAGONITE LLC",
    "year":2010,
    "address":"11600 N APTUS RD",
    "city":"GRANTSVILLE",
    "state":"UT",
    "zipcode":84029,
    "latitude":40.599942,
    "longitude":-112.464399,
    "total_release":1,
    "radius":1
  },
  {
    "facility":"CLEAN HARBORS ARAGONITE LLC",
    "year":2011,
    "address":"11600 N APTUS RD",
    "city":"GRANTSVILLE",
    "state":"UT",
    "zipcode":84029,
    "latitude":40.599942,
    "longitude":-112.464399,
    "total_release":1,
    "radius":1
  },
  {
    "facility":"CLEAN HARBORS ARAGONITE LLC",
    "year":2012,
    "address":"11600 N APTUS RD",
    "city":"GRANTSVILLE",
    "state":"UT",
    "zipcode":84029,
    "latitude":40.599942,
    "longitude":-112.464399,
    "total_release":1,
    "radius":1
  },
  {
    "facility":"CLEAN HARBORS DEER PARK LLC",
    "year":1998,
    "address":"2027 INDEPENDENCE PKWY S",
    "city":"LA PORTE",
    "state":"TX",
    "zipcode":77571,
    "latitude":29.731708,
    "longitude":-95.096525,
    "total_release":1,
    "radius":1
  },
  {
    "facility":"CLEAN HARBORS DEER PARK LLC",
    "year":1999,
    "address":"2027 INDEPENDENCE PKWY S",
    "city":"LA PORTE",
    "state":"TX",
    "zipcode":77571,
    "latitude":29.731708,
    "longitude":-95.096525,
    "total_release":1,
    "radius":1
  },
  {
    "facility":"CLEAN HARBORS DEER PARK LLC",
    "year":2000,
    "address":"2027 INDEPENDENCE PKWY S",
    "city":"LA PORTE",
    "state":"TX",
    "zipcode":77571,
    "latitude":29.731708,
    "longitude":-95.096525,
    "total_release":1,
    "radius":1
  },
  {
    "facility":"CLEAN HARBORS DEER PARK LLC",
    "year":2010,
    "address":"2027 INDEPENDENCE PKWY S",
    "city":"LA PORTE",
    "state":"TX",
    "zipcode":77571,
    "latitude":29.731708,
    "longitude":-95.096525,
    "total_release":1,
    "radius":1
  },
  {
    "facility":"CLEAN HARBORS DEER PARK LLC",
    "year":2014,
    "address":"2027 INDEPENDENCE PKWY S",
    "city":"LA PORTE",
    "state":"TX",
    "zipcode":77571,
    "latitude":29.731708,
    "longitude":-95.096525,
    "total_release":1,
    "radius":1
  },
  {
    "facility":"GIANT CEMENT CO",
    "year":2007,
    "address":"HWY 453 & I-26 (654 JUDGE ST)",
    "city":"HARLEYVILLE",
    "state":"SC",
    "zipcode":29448,
    "latitude":33.231488,
    "longitude":-80.445242,
    "total_release":1,
    "radius":1
  },
  {
    "facility":"UNILIN US MDF",
    "year":2009,
    "address":"149 HOMANIT USA RD",
    "city":"MOUNT GILEAD",
    "state":"NC",
    "zipcode":27306,
    "latitude":35.250921,
    "longitude":-79.973756,
    "total_release":1.21,
    "radius":1
  },
  {
    "facility":"CLEAN HARBORS DEER PARK LLC",
    "year":2005,
    "address":"2027 INDEPENDENCE PKWY S",
    "city":"LA PORTE",
    "state":"TX",
    "zipcode":77571,
    "latitude":29.731708,
    "longitude":-95.096525,
    "total_release":1.22,
    "radius":1
  },
  {
    "facility":"UNILIN US MDF",
    "year":2010,
    "address":"149 HOMANIT USA RD",
    "city":"MOUNT GILEAD",
    "state":"NC",
    "zipcode":27306,
    "latitude":35.250921,
    "longitude":-79.973756,
    "total_release":1.4,
    "radius":1
  },
  {
    "facility":"ROSS INCINERATION SERVICES INC",
    "year":2007,
    "address":"36790 GILES RD",
    "city":"GRAFTON",
    "state":"OH",
    "zipcode":44044,
    "latitude":41.321669,
    "longitude":-82.034607,
    "total_release":1.68,
    "radius":1
  },
  {
    "facility":"CLEAN HARBORS DEER PARK LLC",
    "year":2002,
    "address":"2027 INDEPENDENCE PKWY S",
    "city":"LA PORTE",
    "state":"TX",
    "zipcode":77571,
    "latitude":29.731708,
    "longitude":-95.096525,
    "total_release":1.7,
    "radius":1
  },
  {
    "facility":"UNILIN US MDF",
    "year":2008,
    "address":"149 HOMANIT USA RD",
    "city":"MOUNT GILEAD",
    "state":"NC",
    "zipcode":27306,
    "latitude":35.250921,
    "longitude":-79.973756,
    "total_release":1.71,
    "radius":1
  },
  {
    "facility":"UNILIN US MDF",
    "year":2007,
    "address":"149 HOMANIT USA RD",
    "city":"MOUNT GILEAD",
    "state":"NC",
    "zipcode":27306,
    "latitude":35.250921,
    "longitude":-79.973756,
    "total_release":1.75,
    "radius":1
  },
  {
    "facility":"UNILIN US MDF",
    "year":2006,
    "address":"149 HOMANIT USA RD",
    "city":"MOUNT GILEAD",
    "state":"NC",
    "zipcode":27306,
    "latitude":35.250921,
    "longitude":-79.973756,
    "total_release":1.82,
    "radius":1
  },
  {
    "facility":"UNILIN US MDF",
    "year":2005,
    "address":"149 HOMANIT USA RD",
    "city":"MOUNT GILEAD",
    "state":"NC",
    "zipcode":27306,
    "latitude":35.250921,
    "longitude":-79.973756,
    "total_release":1.88,
    "radius":1
  },
  {
    "facility":"HUNTSMAN ETHYLENEAMINES PLANT",
    "year":2006,
    "address":"307 COUNTY RD 624 A1  A38 BLOCK",
    "city":"FREEPORT",
    "state":"TX",
    "zipcode":77541,
    "latitude":28.955497,
    "longitude":-95.336967,
    "total_release":2,
    "radius":1
  },
  {
    "facility":"OCCIDENTAL CHEMICAL CORP",
    "year":2001,
    "address":"6200 S RIDGE RD",
    "city":"WICHITA",
    "state":"KS",
    "zipcode":67215,
    "latitude":37.582364,
    "longitude":-97.42097,
    "total_release":2,
    "radius":1
  },
  {
    "facility":"ROSS INCINERATION SERVICES INC",
    "year":2003,
    "address":"36790 GILES RD",
    "city":"GRAFTON",
    "state":"OH",
    "zipcode":44044,
    "latitude":41.321669,
    "longitude":-82.034607,
    "total_release":2,
    "radius":1
  },
  {
    "facility":"LWD INC INDUSTRIAL PARKWAY",
    "year":2003,
    "address":"2475 INDUSTRIAL PKWY",
    "city":"CALVERT CITY",
    "state":"KY",
    "zipcode":42029,
    "latitude":37.046118,
    "longitude":-88.324607,
    "total_release":2.63,
    "radius":1
  },
  {
    "facility":"CLEAN HARBORS DEER PARK LLC",
    "year":2003,
    "address":"2027 INDEPENDENCE PKWY S",
    "city":"LA PORTE",
    "state":"TX",
    "zipcode":77571,
    "latitude":29.731708,
    "longitude":-95.096525,
    "total_release":2.81,
    "radius":1
  },
  {
    "facility":"ROSS INCINERATION SERVICES INC",
    "year":2010,
    "address":"36790 GILES RD",
    "city":"GRAFTON",
    "state":"OH",
    "zipcode":44044,
    "latitude":41.321669,
    "longitude":-82.034607,
    "total_release":2.913,
    "radius":1
  },
  {
    "facility":"ROSS INCINERATION SERVICES INC",
    "year":2014,
    "address":"36790 GILES RD",
    "city":"GRAFTON",
    "state":"OH",
    "zipcode":44044,
    "latitude":41.321669,
    "longitude":-82.034607,
    "total_release":2.98,
    "radius":1
  },
  {
    "facility":"CLEAN HARBORS ARAGONITE LLC",
    "year":2013,
    "address":"11600 N APTUS RD",
    "city":"GRANTSVILLE",
    "state":"UT",
    "zipcode":84029,
    "latitude":40.599942,
    "longitude":-112.464399,
    "total_release":3.04,
    "radius":1
  },
  {
    "facility":"LWD INC INDUSTRIAL PARKWAY",
    "year":2002,
    "address":"2475 INDUSTRIAL PKWY",
    "city":"CALVERT CITY",
    "state":"KY",
    "zipcode":42029,
    "latitude":37.046118,
    "longitude":-88.324607,
    "total_release":3.17,
    "radius":1
  },
  {
    "facility":"CLEAN HARBORS ENVIRONMENTAL SERVICES INC",
    "year":2014,
    "address":"2247 S HWY 71",
    "city":"KIMBALL",
    "state":"NE",
    "zipcode":69145,
    "latitude":41.284001,
    "longitude":-103.663175,
    "total_release":3.2,
    "radius":1
  },
  {
    "facility":"ROSS INCINERATION SERVICES INC",
    "year":2011,
    "address":"36790 GILES RD",
    "city":"GRAFTON",
    "state":"OH",
    "zipcode":44044,
    "latitude":41.321669,
    "longitude":-82.034607,
    "total_release":3.96,
    "radius":1
  },
  {
    "facility":"CLEAN HARBORS ENVIRONMENTAL SERVICES INC",
    "year":2012,
    "address":"2247 S HWY 71",
    "city":"KIMBALL",
    "state":"NE",
    "zipcode":69145,
    "latitude":41.284001,
    "longitude":-103.663175,
    "total_release":4,
    "radius":1
  },
  {
    "facility":"HEARTLAND CEMENT CO DBA BUZZI UNICEM USA",
    "year":1995,
    "address":"1765 LIMESTONE LN",
    "city":"INDEPENDENCE",
    "state":"KS",
    "zipcode":67301,
    "latitude":37.212561,
    "longitude":-95.683127,
    "total_release":4,
    "radius":1
  },
  {
    "facility":"HUNTSMAN ETHYLENEAMINES PLANT",
    "year":2007,
    "address":"307 COUNTY RD 624 A1  A38 BLOCK",
    "city":"FREEPORT",
    "state":"TX",
    "zipcode":77541,
    "latitude":28.955497,
    "longitude":-95.336967,
    "total_release":4,
    "radius":1
  },
  {
    "facility":"ROSS INCINERATION SERVICES INC",
    "year":1998,
    "address":"36790 GILES RD",
    "city":"GRAFTON",
    "state":"OH",
    "zipcode":44044,
    "latitude":41.321669,
    "longitude":-82.034607,
    "total_release":4,
    "radius":1
  },
  {
    "facility":"ROSS INCINERATION SERVICES INC",
    "year":2008,
    "address":"36790 GILES RD",
    "city":"GRAFTON",
    "state":"OH",
    "zipcode":44044,
    "latitude":41.321669,
    "longitude":-82.034607,
    "total_release":4.798,
    "radius":1
  },
  {
    "facility":"ARMSTRONG WORLD INDUSTRIES INC",
    "year":2004,
    "address":"4115 N PERKINS RD",
    "city":"STILLWATER",
    "state":"OK",
    "zipcode":74075,
    "latitude":36.16418,
    "longitude":-97.050004,
    "total_release":5,
    "radius":1
  },
  {
    "facility":"CLEAN HARBORS DEER PARK LLC",
    "year":2012,
    "address":"2027 INDEPENDENCE PKWY S",
    "city":"LA PORTE",
    "state":"TX",
    "zipcode":77571,
    "latitude":29.731708,
    "longitude":-95.096525,
    "total_release":5,
    "radius":1
  },
  {
    "facility":"CLEAN HARBORS ENVIRONMENTAL SERVICES INC",
    "year":2000,
    "address":"2247 S HWY 71",
    "city":"KIMBALL",
    "state":"NE",
    "zipcode":69145,
    "latitude":41.284001,
    "longitude":-103.663175,
    "total_release":5,
    "radius":1
  },
  {
    "facility":"ECO SERVICES OPERATIONS LLC",
    "year":1991,
    "address":"8615 MANCHESTER ST",
    "city":"HOUSTON",
    "state":"TX",
    "zipcode":77012,
    "latitude":29.718786,
    "longitude":-95.269748,
    "total_release":5,
    "radius":1
  },
  {
    "facility":"ECO SERVICES OPERATIONS LLC",
    "year":1992,
    "address":"8615 MANCHESTER ST",
    "city":"HOUSTON",
    "state":"TX",
    "zipcode":77012,
    "latitude":29.718786,
    "longitude":-95.269748,
    "total_release":5,
    "radius":1
  },
  {
    "facility":"EQ RESOURCE RECOVERY INC",
    "year":2002,
    "address":"36345 VAN BORN RD",
    "city":"ROMULUS",
    "state":"MI",
    "zipcode":48174,
    "latitude":42.265873,
    "longitude":-83.395581,
    "total_release":5,
    "radius":1
  },
  {
    "facility":"EQ RESOURCE RECOVERY INC",
    "year":2003,
    "address":"36345 VAN BORN RD",
    "city":"ROMULUS",
    "state":"MI",
    "zipcode":48174,
    "latitude":42.265873,
    "longitude":-83.395581,
    "total_release":5,
    "radius":1
  },
  {
    "facility":"EVOQUA WATER TECHNOLOGIES LLC",
    "year":1998,
    "address":"5375 S BOYLE AVE",
    "city":"VERNON",
    "state":"CA",
    "zipcode":90058,
    "latitude":33.994157,
    "longitude":-118.213642,
    "total_release":5,
    "radius":1
  },
  {
    "facility":"EVOQUA WATER TECHNOLOGIES LLC",
    "year":1999,
    "address":"5375 S BOYLE AVE",
    "city":"VERNON",
    "state":"CA",
    "zipcode":90058,
    "latitude":33.994157,
    "longitude":-118.213642,
    "total_release":5,
    "radius":1
  },
  {
    "facility":"SAFETY-KLEEN (BRIDGEPORT) INC.",
    "year":1999,
    "address":"RTE. 322 & I-295",
    "city":"BRIDGEPORT",
    "state":"NJ",
    "zipcode":8014,
    "latitude":39.778593,
    "longitude":-75.341245,
    "total_release":5,
    "radius":1
  },
  {
    "facility":"UNILIN US MDF",
    "year":2004,
    "address":"149 HOMANIT USA RD",
    "city":"MOUNT GILEAD",
    "state":"NC",
    "zipcode":27306,
    "latitude":35.250921,
    "longitude":-79.973756,
    "total_release":5,
    "radius":1
  },
  {
    "facility":"ROSS INCINERATION SERVICES INC",
    "year":2013,
    "address":"36790 GILES RD",
    "city":"GRAFTON",
    "state":"OH",
    "zipcode":44044,
    "latitude":41.321669,
    "longitude":-82.034607,
    "total_release":5.42,
    "radius":1
  },
  {
    "facility":"CLEAN HARBORS DEER PARK LLC",
    "year":2008,
    "address":"2027 INDEPENDENCE PKWY S",
    "city":"LA PORTE",
    "state":"TX",
    "zipcode":77571,
    "latitude":29.731708,
    "longitude":-95.096525,
    "total_release":6,
    "radius":1
  },
  {
    "facility":"SAFETY-KLEEN (BRIDGEPORT) INC.",
    "year":1998,
    "address":"RTE. 322 & I-295",
    "city":"BRIDGEPORT",
    "state":"NJ",
    "zipcode":8014,
    "latitude":39.778593,
    "longitude":-75.341245,
    "total_release":6,
    "radius":1
  },
  {
    "facility":"SAFETY-KLEEN (BRIDGEPORT) INC.",
    "year":2000,
    "address":"RTE. 322 & I-295",
    "city":"BRIDGEPORT",
    "state":"NJ",
    "zipcode":8014,
    "latitude":39.778593,
    "longitude":-75.341245,
    "total_release":6,
    "radius":1
  },
  {
    "facility":"OCCIDENTAL CHEMICAL CORP",
    "year":1989,
    "address":"6200 S RIDGE RD",
    "city":"WICHITA",
    "state":"KS",
    "zipcode":67215,
    "latitude":37.582364,
    "longitude":-97.42097,
    "total_release":7,
    "radius":1
  },
  {
    "facility":"SAFETY-KLEEN (ROEBUCK) INC.",
    "year":1998,
    "address":"300-301 RAILROAD ST.",
    "city":"ROEBUCK",
    "state":"SC",
    "zipcode":293769454,
    "latitude":34.959157,
    "longitude":-81.989884,
    "total_release":7,
    "radius":1
  },
  {
    "facility":"UNILIN US MDF",
    "year":2011,
    "address":"149 HOMANIT USA RD",
    "city":"MOUNT GILEAD",
    "state":"NC",
    "zipcode":27306,
    "latitude":35.250921,
    "longitude":-79.973756,
    "total_release":7.55,
    "radius":1
  },
  {
    "facility":"CLEAN HARBORS ARAGONITE LLC",
    "year":2001,
    "address":"11600 N APTUS RD",
    "city":"GRANTSVILLE",
    "state":"UT",
    "zipcode":84029,
    "latitude":40.599942,
    "longitude":-112.464399,
    "total_release":8,
    "radius":1
  },
  {
    "facility":"CLEAN HARBORS DEER PARK LLC",
    "year":2007,
    "address":"2027 INDEPENDENCE PKWY S",
    "city":"LA PORTE",
    "state":"TX",
    "zipcode":77571,
    "latitude":29.731708,
    "longitude":-95.096525,
    "total_release":8,
    "radius":1
  },
  {
    "facility":"CLEAN HARBORS DEER PARK LLC",
    "year":2011,
    "address":"2027 INDEPENDENCE PKWY S",
    "city":"LA PORTE",
    "state":"TX",
    "zipcode":77571,
    "latitude":29.731708,
    "longitude":-95.096525,
    "total_release":8,
    "radius":1
  },
  {
    "facility":"FANCYHEAT CORP",
    "year":1989,
    "address":"40 VERONICA AVE",
    "city":"SOMERSET",
    "state":"NJ",
    "zipcode":8873,
    "latitude":40.480582,
    "longitude":-74.49998,
    "total_release":8,
    "radius":1
  },
  {
    "facility":"ONA POLYMERS LLC",
    "year":1991,
    "address":"2326 LONNECKER DR",
    "city":"GARLAND",
    "state":"TX",
    "zipcode":75041,
    "latitude":32.888819,
    "longitude":-96.672738,
    "total_release":8,
    "radius":1
  },
  {
    "facility":"ONA POLYMERS LLC",
    "year":1992,
    "address":"2326 LONNECKER DR",
    "city":"GARLAND",
    "state":"TX",
    "zipcode":75041,
    "latitude":32.888819,
    "longitude":-96.672738,
    "total_release":8,
    "radius":1
  },
  {
    "facility":"ONA POLYMERS LLC",
    "year":1993,
    "address":"2326 LONNECKER DR",
    "city":"GARLAND",
    "state":"TX",
    "zipcode":75041,
    "latitude":32.888819,
    "longitude":-96.672738,
    "total_release":8,
    "radius":1
  },
  {
    "facility":"BONDCOTE CORP",
    "year":1992,
    "address":"509 BURGIS AVE",
    "city":"PULASKI",
    "state":"VA",
    "zipcode":24301,
    "latitude":37.04935,
    "longitude":-80.755208,
    "total_release":10,
    "radius":1
  },
  {
    "facility":"BONDCOTE CORP",
    "year":1993,
    "address":"509 BURGIS AVE",
    "city":"PULASKI",
    "state":"VA",
    "zipcode":24301,
    "latitude":37.04935,
    "longitude":-80.755208,
    "total_release":10,
    "radius":1
  },
  {
    "facility":"BONDCOTE CORP",
    "year":1994,
    "address":"509 BURGIS AVE",
    "city":"PULASKI",
    "state":"VA",
    "zipcode":24301,
    "latitude":37.04935,
    "longitude":-80.755208,
    "total_release":10,
    "radius":1
  },
  {
    "facility":"BONDCOTE CORP",
    "year":1995,
    "address":"509 BURGIS AVE",
    "city":"PULASKI",
    "state":"VA",
    "zipcode":24301,
    "latitude":37.04935,
    "longitude":-80.755208,
    "total_release":10,
    "radius":1
  },
  {
    "facility":"BONDCOTE CORP",
    "year":1996,
    "address":"509 BURGIS AVE",
    "city":"PULASKI",
    "state":"VA",
    "zipcode":24301,
    "latitude":37.04935,
    "longitude":-80.755208,
    "total_release":10,
    "radius":1
  },
  {
    "facility":"BONDCOTE CORP",
    "year":1997,
    "address":"509 BURGIS AVE",
    "city":"PULASKI",
    "state":"VA",
    "zipcode":24301,
    "latitude":37.04935,
    "longitude":-80.755208,
    "total_release":10,
    "radius":1
  },
  {
    "facility":"CLEAN HARBORS DEER PARK LLC",
    "year":2013,
    "address":"2027 INDEPENDENCE PKWY S",
    "city":"LA PORTE",
    "state":"TX",
    "zipcode":77571,
    "latitude":29.731708,
    "longitude":-95.096525,
    "total_release":10,
    "radius":1
  },
  {
    "facility":"DURACOTE CORP",
    "year":2003,
    "address":"350 N DIAMOND ST",
    "city":"RAVENNA",
    "state":"OH",
    "zipcode":44266,
    "latitude":41.1633,
    "longitude":-81.252686,
    "total_release":10,
    "radius":1
  },
  {
    "facility":"FENNER DUNLOP - ATLANTA",
    "year":1999,
    "address":"21 LAREDO DR",
    "city":"SCOTTDALE",
    "state":"GA",
    "zipcode":300790865,
    "latitude":33.779554,
    "longitude":-84.268052,
    "total_release":10,
    "radius":1
  },
  {
    "facility":"FENNER DUNLOP - ATLANTA",
    "year":2000,
    "address":"21 LAREDO DR",
    "city":"SCOTTDALE",
    "state":"GA",
    "zipcode":300790865,
    "latitude":33.779554,
    "longitude":-84.268052,
    "total_release":10,
    "radius":1
  },
  {
    "facility":"LWD INC INDUSTRIAL PARKWAY",
    "year":1999,
    "address":"2475 INDUSTRIAL PKWY",
    "city":"CALVERT CITY",
    "state":"KY",
    "zipcode":42029,
    "latitude":37.046118,
    "longitude":-88.324607,
    "total_release":10,
    "radius":1
  },
  {
    "facility":"LWD INC INDUSTRIAL PARKWAY",
    "year":2001,
    "address":"2475 INDUSTRIAL PKWY",
    "city":"CALVERT CITY",
    "state":"KY",
    "zipcode":42029,
    "latitude":37.046118,
    "longitude":-88.324607,
    "total_release":10,
    "radius":1
  },
  {
    "facility":"ONA POLYMERS LLC",
    "year":1987,
    "address":"2326 LONNECKER DR",
    "city":"GARLAND",
    "state":"TX",
    "zipcode":75041,
    "latitude":32.888819,
    "longitude":-96.672738,
    "total_release":10,
    "radius":1
  },
  {
    "facility":"OXY VINYLS LP BATTLEGROUND CA",
    "year":1990,
    "address":"1800 VISTA RD.",
    "city":"LA PORTE",
    "state":"TX",
    "zipcode":77571,
    "latitude":29.738679,
    "longitude":-95.086623,
    "total_release":10,
    "radius":1
  },
  {
    "facility":"VEOLIA ES TECHNICAL SOLUTIONS LLC PORT ARTHUR FACILITY",
    "year":2013,
    "address":"HWY 73  3.5 MILES W OF TAYLOR BAYOU",
    "city":"PORT ARTHUR",
    "state":"TX",
    "zipcode":77640,
    "latitude":29.88495,
    "longitude":-93.939947,
    "total_release":10,
    "radius":1
  },
  {
    "facility":"UNILIN US MDF",
    "year":2012,
    "address":"149 HOMANIT USA RD",
    "city":"MOUNT GILEAD",
    "state":"NC",
    "zipcode":27306,
    "latitude":35.250921,
    "longitude":-79.973756,
    "total_release":10.5,
    "radius":1
  },
  {
    "facility":"OCCIDENTAL CHEMICAL CORP",
    "year":1990,
    "address":"6200 S RIDGE RD",
    "city":"WICHITA",
    "state":"KS",
    "zipcode":67215,
    "latitude":37.582364,
    "longitude":-97.42097,
    "total_release":11,
    "radius":1
  },
  {
    "facility":"UNION CARBIDE CORP TUCKER LATEX PLANT",
    "year":1993,
    "address":"2043 STEEL DR",
    "city":"TUCKER",
    "state":"GA",
    "zipcode":30084,
    "latitude":33.842728,
    "longitude":-84.235481,
    "total_release":11,
    "radius":1
  },
  {
    "facility":"UNILIN US MDF",
    "year":2013,
    "address":"149 HOMANIT USA RD",
    "city":"MOUNT GILEAD",
    "state":"NC",
    "zipcode":27306,
    "latitude":35.250921,
    "longitude":-79.973756,
    "total_release":11.6,
    "radius":1
  },
  {
    "facility":"FANCYHEAT CORP",
    "year":1987,
    "address":"40 VERONICA AVE",
    "city":"SOMERSET",
    "state":"NJ",
    "zipcode":8873,
    "latitude":40.480582,
    "longitude":-74.49998,
    "total_release":12,
    "radius":1
  },
  {
    "facility":"UNION CARBIDE CORP TUCKER LATEX PLANT",
    "year":1990,
    "address":"2043 STEEL DR",
    "city":"TUCKER",
    "state":"GA",
    "zipcode":30084,
    "latitude":33.842728,
    "longitude":-84.235481,
    "total_release":12,
    "radius":1
  },
  {
    "facility":"US ECOLOGY NEVADA INC",
    "year":2006,
    "address":"12 MILES S OF BEATTY ON HWY 95",
    "city":"BEATTY",
    "state":"NV",
    "zipcode":89003,
    "latitude":36.908557,
    "longitude":-116.759227,
    "total_release":12,
    "radius":1
  },
  {
    "facility":"ROSS INCINERATION SERVICES INC",
    "year":2009,
    "address":"36790 GILES RD",
    "city":"GRAFTON",
    "state":"OH",
    "zipcode":44044,
    "latitude":41.321669,
    "longitude":-82.034607,
    "total_release":12.486,
    "radius":1
  },
  {
    "facility":"KIRKHILL RUBBER CO",
    "year":1988,
    "address":"300 E CYPRESS ST",
    "city":"BREA",
    "state":"CA",
    "zipcode":92821,
    "latitude":33.923051,
    "longitude":-117.893416,
    "total_release":13,
    "radius":1
  },
  {
    "facility":"KIRKHILL RUBBER CO",
    "year":1989,
    "address":"300 E CYPRESS ST",
    "city":"BREA",
    "state":"CA",
    "zipcode":92821,
    "latitude":33.923051,
    "longitude":-117.893416,
    "total_release":13,
    "radius":1
  },
  {
    "facility":"OCCIDENTAL CHEMICAL CORP",
    "year":2002,
    "address":"6200 S RIDGE RD",
    "city":"WICHITA",
    "state":"KS",
    "zipcode":67215,
    "latitude":37.582364,
    "longitude":-97.42097,
    "total_release":13,
    "radius":1
  },
  {
    "facility":"ROSS INCINERATION SERVICES INC",
    "year":2012,
    "address":"36790 GILES RD",
    "city":"GRAFTON",
    "state":"OH",
    "zipcode":44044,
    "latitude":41.321669,
    "longitude":-82.034607,
    "total_release":13.89,
    "radius":1
  },
  {
    "facility":"FANCYHEAT CORP",
    "year":1988,
    "address":"40 VERONICA AVE",
    "city":"SOMERSET",
    "state":"NJ",
    "zipcode":8873,
    "latitude":40.480582,
    "longitude":-74.49998,
    "total_release":14,
    "radius":1
  },
  {
    "facility":"ARKEMA COATING RESINS PLANT",
    "year":1991,
    "address":"19206 HAWTHORNE BLVD",
    "city":"TORRANCE",
    "state":"CA",
    "zipcode":90503,
    "latitude":33.826103,
    "longitude":-118.351475,
    "total_release":15,
    "radius":1
  },
  {
    "facility":"UNILIN US MDF",
    "year":2014,
    "address":"149 HOMANIT USA RD",
    "city":"MOUNT GILEAD",
    "state":"NC",
    "zipcode":27306,
    "latitude":35.250921,
    "longitude":-79.973756,
    "total_release":15.4,
    "radius":1
  },
  {
    "facility":"SILVER CAPITAL CORP",
    "year":1998,
    "address":"6401 W 65TH ST",
    "city":"BEDFORD PARK",
    "state":"IL",
    "zipcode":60638,
    "latitude":41.774015,
    "longitude":-87.782717,
    "total_release":16,
    "radius":1
  },
  {
    "facility":"UNILIN US MDF",
    "year":2002,
    "address":"149 HOMANIT USA RD",
    "city":"MOUNT GILEAD",
    "state":"NC",
    "zipcode":27306,
    "latitude":35.250921,
    "longitude":-79.973756,
    "total_release":16,
    "radius":1
  },
  {
    "facility":"UNION CARBIDE CORP TUCKER LATEX PLANT",
    "year":1987,
    "address":"2043 STEEL DR",
    "city":"TUCKER",
    "state":"GA",
    "zipcode":30084,
    "latitude":33.842728,
    "longitude":-84.235481,
    "total_release":16,
    "radius":1
  },
  {
    "facility":"ARKEMA COATING RESINS PLANT",
    "year":1993,
    "address":"19206 HAWTHORNE BLVD",
    "city":"TORRANCE",
    "state":"CA",
    "zipcode":90503,
    "latitude":33.826103,
    "longitude":-118.351475,
    "total_release":17,
    "radius":1
  },
  {
    "facility":"CHEMTRON CORP",
    "year":1998,
    "address":"35850 SCHNEIDER CT",
    "city":"AVON",
    "state":"OH",
    "zipcode":44011,
    "latitude":41.472007,
    "longitude":-82.016255,
    "total_release":17,
    "radius":1
  },
  {
    "facility":"UNION CARBIDE CORP TUCKER LATEX PLANT",
    "year":1992,
    "address":"2043 STEEL DR",
    "city":"TUCKER",
    "state":"GA",
    "zipcode":30084,
    "latitude":33.842728,
    "longitude":-84.235481,
    "total_release":17,
    "radius":1
  },
  {
    "facility":"UNILIN US MDF",
    "year":2003,
    "address":"149 HOMANIT USA RD",
    "city":"MOUNT GILEAD",
    "state":"NC",
    "zipcode":27306,
    "latitude":35.250921,
    "longitude":-79.973756,
    "total_release":17.043,
    "radius":1
  },
  {
    "facility":"KEYSTONE CEMENT CO",
    "year":2008,
    "address":"RT 329",
    "city":"BATH",
    "state":"PA",
    "zipcode":180140058,
    "latitude":40.725652,
    "longitude":-75.39407,
    "total_release":18,
    "radius":1
  },
  {
    "facility":"ARKEMA COATING RESINS PLANT",
    "year":1992,
    "address":"19206 HAWTHORNE BLVD",
    "city":"TORRANCE",
    "state":"CA",
    "zipcode":90503,
    "latitude":33.826103,
    "longitude":-118.351475,
    "total_release":19,
    "radius":1
  },
  {
    "facility":"CLEAN HARBORS EL DORADO LLC",
    "year":2007,
    "address":"309 AMERICAN CIR UNION",
    "city":"EL DORADO",
    "state":"AR",
    "zipcode":71730,
    "latitude":33.206736,
    "longitude":-92.631055,
    "total_release":19,
    "radius":1
  },
  {
    "facility":"OCCIDENTAL CHEMICAL CORP",
    "year":1999,
    "address":"6200 S RIDGE RD",
    "city":"WICHITA",
    "state":"KS",
    "zipcode":67215,
    "latitude":37.582364,
    "longitude":-97.42097,
    "total_release":20,
    "radius":1
  },
  {
    "facility":"OCCIDENTAL CHEMICAL CORP",
    "year":2000,
    "address":"6200 S RIDGE RD",
    "city":"WICHITA",
    "state":"KS",
    "zipcode":67215,
    "latitude":37.582364,
    "longitude":-97.42097,
    "total_release":20,
    "radius":1
  },
  {
    "facility":"UNION CARBIDE CORP TUCKER LATEX PLANT",
    "year":1991,
    "address":"2043 STEEL DR",
    "city":"TUCKER",
    "state":"GA",
    "zipcode":30084,
    "latitude":33.842728,
    "longitude":-84.235481,
    "total_release":20,
    "radius":1
  },
  {
    "facility":"OCCIDENTAL CHEMICAL CORP",
    "year":1998,
    "address":"6200 S RIDGE RD",
    "city":"WICHITA",
    "state":"KS",
    "zipcode":67215,
    "latitude":37.582364,
    "longitude":-97.42097,
    "total_release":22,
    "radius":1
  },
  {
    "facility":"ST CHARLES OPERATIONS (TAFT/STAR) UNION CARBIDE CORP",
    "year":1990,
    "address":"355 LA HWY 3142 (GATE 1)",
    "city":"TAFT",
    "state":"LA",
    "zipcode":70057,
    "latitude":29.981188,
    "longitude":-90.456185,
    "total_release":28,
    "radius":1
  },
  {
    "facility":"DUPONT CHAMBERS WORKS",
    "year":1994,
    "address":"RT 130",
    "city":"DEEPWATER",
    "state":"NJ",
    "zipcode":8023,
    "latitude":39.715294,
    "longitude":-75.464943,
    "total_release":29,
    "radius":1
  },
  {
    "facility":"UNION CARBIDE CORP TUCKER LATEX PLANT",
    "year":1988,
    "address":"2043 STEEL DR",
    "city":"TUCKER",
    "state":"GA",
    "zipcode":30084,
    "latitude":33.842728,
    "longitude":-84.235481,
    "total_release":29,
    "radius":1
  },
  {
    "facility":"ARKEMA COATING RESINS PLANT",
    "year":1989,
    "address":"19206 HAWTHORNE BLVD",
    "city":"TORRANCE",
    "state":"CA",
    "zipcode":90503,
    "latitude":33.826103,
    "longitude":-118.351475,
    "total_release":31,
    "radius":1
  },
  {
    "facility":"ARKEMA COATING RESINS PLANT",
    "year":1990,
    "address":"19206 HAWTHORNE BLVD",
    "city":"TORRANCE",
    "state":"CA",
    "zipcode":90503,
    "latitude":33.826103,
    "longitude":-118.351475,
    "total_release":31,
    "radius":1
  },
  {
    "facility":"ARKEMA COATING RESINS PLANT",
    "year":1987,
    "address":"19206 HAWTHORNE BLVD",
    "city":"TORRANCE",
    "state":"CA",
    "zipcode":90503,
    "latitude":33.826103,
    "longitude":-118.351475,
    "total_release":32,
    "radius":1
  },
  {
    "facility":"ARKEMA COATING RESINS PLANT",
    "year":1988,
    "address":"19206 HAWTHORNE BLVD",
    "city":"TORRANCE",
    "state":"CA",
    "zipcode":90503,
    "latitude":33.826103,
    "longitude":-118.351475,
    "total_release":32,
    "radius":1
  },
  {
    "facility":"UNION CARBIDE CORP TUCKER LATEX PLANT",
    "year":1989,
    "address":"2043 STEEL DR",
    "city":"TUCKER",
    "state":"GA",
    "zipcode":30084,
    "latitude":33.842728,
    "longitude":-84.235481,
    "total_release":32,
    "radius":1
  },
  {
    "facility":"CLEAN HARBORS DEER PARK LLC",
    "year":2006,
    "address":"2027 INDEPENDENCE PKWY S",
    "city":"LA PORTE",
    "state":"TX",
    "zipcode":77571,
    "latitude":29.731708,
    "longitude":-95.096525,
    "total_release":34,
    "radius":1
  },
  {
    "facility":"OCCIDENTAL CHEMICAL CORP",
    "year":1994,
    "address":"4133 HWY 361",
    "city":"GREGORY",
    "state":"TX",
    "zipcode":78359,
    "latitude":27.915007,
    "longitude":-97.277867,
    "total_release":35,
    "radius":1
  },
  {
    "facility":"ST CHARLES OPERATIONS (TAFT/STAR) UNION CARBIDE CORP",
    "year":1988,
    "address":"355 LA HWY 3142 (GATE 1)",
    "city":"TAFT",
    "state":"LA",
    "zipcode":70057,
    "latitude":29.981188,
    "longitude":-90.456185,
    "total_release":37,
    "radius":1
  },
  {
    "facility":"CLEAN HARBORS ENVIRONMENTAL SERVICES INC",
    "year":2013,
    "address":"2247 S HWY 71",
    "city":"KIMBALL",
    "state":"NE",
    "zipcode":69145,
    "latitude":41.284001,
    "longitude":-103.663175,
    "total_release":37.4,
    "radius":1
  },
  {
    "facility":"HUNTSMAN ETHYLENEAMINES PLANT",
    "year":2014,
    "address":"307 COUNTY RD 624 A1  A38 BLOCK",
    "city":"FREEPORT",
    "state":"TX",
    "zipcode":77541,
    "latitude":28.955497,
    "longitude":-95.336967,
    "total_release":37.992,
    "radius":1
  },
  {
    "facility":"HUNTSMAN ETHYLENEAMINES PLANT",
    "year":2008,
    "address":"307 COUNTY RD 624 A1  A38 BLOCK",
    "city":"FREEPORT",
    "state":"TX",
    "zipcode":77541,
    "latitude":28.955497,
    "longitude":-95.336967,
    "total_release":43,
    "radius":1
  },
  {
    "facility":"ST CHARLES OPERATIONS (TAFT/STAR) UNION CARBIDE CORP",
    "year":1991,
    "address":"355 LA HWY 3142 (GATE 1)",
    "city":"TAFT",
    "state":"LA",
    "zipcode":70057,
    "latitude":29.981188,
    "longitude":-90.456185,
    "total_release":49,
    "radius":1
  },
  {
    "facility":"HERITAGE THERMAL SERVICES",
    "year":2010,
    "address":"1250 ST GEORGE ST",
    "city":"EAST LIVERPOOL",
    "state":"OH",
    "zipcode":439205915,
    "latitude":40.632023,
    "longitude":-80.547388,
    "total_release":52.15,
    "radius":1
  },
  {
    "facility":"HERITAGE THERMAL SERVICES",
    "year":2013,
    "address":"1250 ST GEORGE ST",
    "city":"EAST LIVERPOOL",
    "state":"OH",
    "zipcode":439205915,
    "latitude":40.632023,
    "longitude":-80.547388,
    "total_release":52.27,
    "radius":1
  },
  {
    "facility":"US AMINES (PORTSMOUTH) LLC",
    "year":2008,
    "address":"3230 W NORFOLK RD",
    "city":"PORTSMOUTH",
    "state":"VA",
    "zipcode":23703,
    "latitude":36.860855,
    "longitude":-76.342564,
    "total_release":54,
    "radius":1
  },
  {
    "facility":"BAYER CROPSCIENCE",
    "year":1998,
    "address":"8400 HAWTHORN RD",
    "city":"KANSAS CITY",
    "state":"MO",
    "zipcode":641200013,
    "latitude":39.121834,
    "longitude":-94.478735,
    "total_release":56,
    "radius":1
  },
  {
    "facility":"ST CHARLES OPERATIONS (TAFT/STAR) UNION CARBIDE CORP",
    "year":1992,
    "address":"355 LA HWY 3142 (GATE 1)",
    "city":"TAFT",
    "state":"LA",
    "zipcode":70057,
    "latitude":29.981188,
    "longitude":-90.456185,
    "total_release":56,
    "radius":1
  },
  {
    "facility":"BAYER CROPSCIENCE",
    "year":1999,
    "address":"8400 HAWTHORN RD",
    "city":"KANSAS CITY",
    "state":"MO",
    "zipcode":641200013,
    "latitude":39.121834,
    "longitude":-94.478735,
    "total_release":57,
    "radius":1
  },
  {
    "facility":"SILVER CAPITAL CORP",
    "year":1997,
    "address":"6401 W 65TH ST",
    "city":"BEDFORD PARK",
    "state":"IL",
    "zipcode":60638,
    "latitude":41.774015,
    "longitude":-87.782717,
    "total_release":58,
    "radius":1
  },
  {
    "facility":"US AMINES (PORTSMOUTH) LLC",
    "year":2004,
    "address":"3230 W NORFOLK RD",
    "city":"PORTSMOUTH",
    "state":"VA",
    "zipcode":23703,
    "latitude":36.860855,
    "longitude":-76.342564,
    "total_release":58,
    "radius":1
  },
  {
    "facility":"BAYER CROPSCIENCE",
    "year":2011,
    "address":"8400 HAWTHORN RD",
    "city":"KANSAS CITY",
    "state":"MO",
    "zipcode":641200013,
    "latitude":39.121834,
    "longitude":-94.478735,
    "total_release":59,
    "radius":1
  },
  {
    "facility":"HERITAGE THERMAL SERVICES",
    "year":2014,
    "address":"1250 ST GEORGE ST",
    "city":"EAST LIVERPOOL",
    "state":"OH",
    "zipcode":439205915,
    "latitude":40.632023,
    "longitude":-80.547388,
    "total_release":60.23,
    "radius":1
  },
  {
    "facility":"OCCIDENTAL CHEMICAL CORP",
    "year":1987,
    "address":"6200 S RIDGE RD",
    "city":"WICHITA",
    "state":"KS",
    "zipcode":67215,
    "latitude":37.582364,
    "longitude":-97.42097,
    "total_release":62,
    "radius":1
  },
  {
    "facility":"US AMINES (PORTSMOUTH) LLC",
    "year":2006,
    "address":"3230 W NORFOLK RD",
    "city":"PORTSMOUTH",
    "state":"VA",
    "zipcode":23703,
    "latitude":36.860855,
    "longitude":-76.342564,
    "total_release":67,
    "radius":1
  },
  {
    "facility":"BAYER CROPSCIENCE",
    "year":2009,
    "address":"8400 HAWTHORN RD",
    "city":"KANSAS CITY",
    "state":"MO",
    "zipcode":641200013,
    "latitude":39.121834,
    "longitude":-94.478735,
    "total_release":68,
    "radius":1
  },
  {
    "facility":"BAYER CROPSCIENCE",
    "year":2004,
    "address":"8400 HAWTHORN RD",
    "city":"KANSAS CITY",
    "state":"MO",
    "zipcode":641200013,
    "latitude":39.121834,
    "longitude":-94.478735,
    "total_release":69,
    "radius":1
  },
  {
    "facility":"BAYER CROPSCIENCE",
    "year":2008,
    "address":"8400 HAWTHORN RD",
    "city":"KANSAS CITY",
    "state":"MO",
    "zipcode":641200013,
    "latitude":39.121834,
    "longitude":-94.478735,
    "total_release":69,
    "radius":1
  },
  {
    "facility":"BAYER CROPSCIENCE",
    "year":2007,
    "address":"8400 HAWTHORN RD",
    "city":"KANSAS CITY",
    "state":"MO",
    "zipcode":641200013,
    "latitude":39.121834,
    "longitude":-94.478735,
    "total_release":72,
    "radius":1
  },
  {
    "facility":"ST CHARLES OPERATIONS (TAFT/STAR) UNION CARBIDE CORP",
    "year":1998,
    "address":"355 LA HWY 3142 (GATE 1)",
    "city":"TAFT",
    "state":"LA",
    "zipcode":70057,
    "latitude":29.981188,
    "longitude":-90.456185,
    "total_release":73,
    "radius":1
  },
  {
    "facility":"BAYER CROPSCIENCE",
    "year":2000,
    "address":"8400 HAWTHORN RD",
    "city":"KANSAS CITY",
    "state":"MO",
    "zipcode":641200013,
    "latitude":39.121834,
    "longitude":-94.478735,
    "total_release":74,
    "radius":1
  },
  {
    "facility":"BAYER CROPSCIENCE",
    "year":2001,
    "address":"8400 HAWTHORN RD",
    "city":"KANSAS CITY",
    "state":"MO",
    "zipcode":641200013,
    "latitude":39.121834,
    "longitude":-94.478735,
    "total_release":75,
    "radius":1
  },
  {
    "facility":"HERITAGE THERMAL SERVICES",
    "year":2009,
    "address":"1250 ST GEORGE ST",
    "city":"EAST LIVERPOOL",
    "state":"OH",
    "zipcode":439205915,
    "latitude":40.632023,
    "longitude":-80.547388,
    "total_release":77.23,
    "radius":1
  },
  {
    "facility":"OCCIDENTAL CHEMICAL HOLDING CORP - GEISMAR PLANT",
    "year":2006,
    "address":"8318 ASHLAND RD",
    "city":"GEISMAR",
    "state":"LA",
    "zipcode":70734,
    "latitude":30.197397,
    "longitude":-90.965052,
    "total_release":80,
    "radius":1
  },
  {
    "facility":"ONA POLYMERS LLC",
    "year":1989,
    "address":"2326 LONNECKER DR",
    "city":"GARLAND",
    "state":"TX",
    "zipcode":75041,
    "latitude":32.888819,
    "longitude":-96.672738,
    "total_release":83,
    "radius":1
  },
  {
    "facility":"HUNTSMAN ETHYLENEAMINES PLANT",
    "year":2011,
    "address":"307 COUNTY RD 624 A1  A38 BLOCK",
    "city":"FREEPORT",
    "state":"TX",
    "zipcode":77541,
    "latitude":28.955497,
    "longitude":-95.336967,
    "total_release":85,
    "radius":1
  },
  {
    "facility":"HUNTSMAN ETHYLENEAMINES PLANT",
    "year":2013,
    "address":"307 COUNTY RD 624 A1  A38 BLOCK",
    "city":"FREEPORT",
    "state":"TX",
    "zipcode":77541,
    "latitude":28.955497,
    "longitude":-95.336967,
    "total_release":87,
    "radius":1
  },
  {
    "facility":"OXY VINYLS LP DEER PARK-VCM PLANT",
    "year":1990,
    "address":"5900 HWY 225 GATE 8A",
    "city":"DEER PARK",
    "state":"TX",
    "zipcode":77536,
    "latitude":29.731331,
    "longitude":-95.10771,
    "total_release":87,
    "radius":1
  },
  {
    "facility":"HUNTSMAN ETHYLENEAMINES PLANT",
    "year":2009,
    "address":"307 COUNTY RD 624 A1  A38 BLOCK",
    "city":"FREEPORT",
    "state":"TX",
    "zipcode":77541,
    "latitude":28.955497,
    "longitude":-95.336967,
    "total_release":88,
    "radius":1
  },
  {
    "facility":"US AMINES (PORTSMOUTH) LLC",
    "year":2005,
    "address":"3230 W NORFOLK RD",
    "city":"PORTSMOUTH",
    "state":"VA",
    "zipcode":23703,
    "latitude":36.860855,
    "longitude":-76.342564,
    "total_release":88,
    "radius":1
  },
  {
    "facility":"BAYER CROPSCIENCE",
    "year":2002,
    "address":"8400 HAWTHORN RD",
    "city":"KANSAS CITY",
    "state":"MO",
    "zipcode":641200013,
    "latitude":39.121834,
    "longitude":-94.478735,
    "total_release":91,
    "radius":1
  },
  {
    "facility":"OCCIDENTAL CHEMICAL CORP",
    "year":1997,
    "address":"6200 S RIDGE RD",
    "city":"WICHITA",
    "state":"KS",
    "zipcode":67215,
    "latitude":37.582364,
    "longitude":-97.42097,
    "total_release":92,
    "radius":1
  },
  {
    "facility":"THE DOW CHEMICAL CO - LOUISIANA OPERATIONS",
    "year":2013,
    "address":"21255 LA HWY 1 S",
    "city":"PLAQUEMINE",
    "state":"LA",
    "zipcode":70764,
    "latitude":30.32222,
    "longitude":-91.252348,
    "total_release":93,
    "radius":1
  },
  {
    "facility":"CLEAN HARBORS EL DORADO LLC",
    "year":2006,
    "address":"309 AMERICAN CIR UNION",
    "city":"EL DORADO",
    "state":"AR",
    "zipcode":71730,
    "latitude":33.206736,
    "longitude":-92.631055,
    "total_release":96,
    "radius":1
  },
  {
    "facility":"HUNTSMAN ETHYLENEAMINES PLANT",
    "year":2002,
    "address":"307 COUNTY RD 624 A1  A38 BLOCK",
    "city":"FREEPORT",
    "state":"TX",
    "zipcode":77541,
    "latitude":28.955497,
    "longitude":-95.336967,
    "total_release":98,
    "radius":1
  },
  {
    "facility":"HUNTSMAN ETHYLENEAMINES PLANT",
    "year":2003,
    "address":"307 COUNTY RD 624 A1  A38 BLOCK",
    "city":"FREEPORT",
    "state":"TX",
    "zipcode":77541,
    "latitude":28.955497,
    "longitude":-95.336967,
    "total_release":98,
    "radius":1
  },
  {
    "facility":"HUNTSMAN ETHYLENEAMINES PLANT",
    "year":2004,
    "address":"307 COUNTY RD 624 A1  A38 BLOCK",
    "city":"FREEPORT",
    "state":"TX",
    "zipcode":77541,
    "latitude":28.955497,
    "longitude":-95.336967,
    "total_release":98,
    "radius":1
  },
  {
    "facility":"HUNTSMAN ETHYLENEAMINES PLANT",
    "year":2005,
    "address":"307 COUNTY RD 624 A1  A38 BLOCK",
    "city":"FREEPORT",
    "state":"TX",
    "zipcode":77541,
    "latitude":28.955497,
    "longitude":-95.336967,
    "total_release":99,
    "radius":1
  },
  {
    "facility":"BAYER CROPSCIENCE",
    "year":2003,
    "address":"8400 HAWTHORN RD",
    "city":"KANSAS CITY",
    "state":"MO",
    "zipcode":641200013,
    "latitude":39.121834,
    "longitude":-94.478735,
    "total_release":100,
    "radius":1
  },
  {
    "facility":"HUNTSMAN ETHYLENEAMINES PLANT",
    "year":2012,
    "address":"307 COUNTY RD 624 A1  A38 BLOCK",
    "city":"FREEPORT",
    "state":"TX",
    "zipcode":77541,
    "latitude":28.955497,
    "longitude":-95.336967,
    "total_release":100,
    "radius":1
  },
  {
    "facility":"OCCIDENTAL CHEMICAL HOLDING CORP - GEISMAR PLANT",
    "year":2001,
    "address":"8318 ASHLAND RD",
    "city":"GEISMAR",
    "state":"LA",
    "zipcode":70734,
    "latitude":30.197397,
    "longitude":-90.965052,
    "total_release":105,
    "radius":1
  },
  {
    "facility":"LUBRIZOL ADVANCED MATERIALS INC",
    "year":2005,
    "address":"4200 BELLS LN",
    "city":"LOUISVILLE",
    "state":"KY",
    "zipcode":402112147,
    "latitude":38.222486,
    "longitude":-85.829256,
    "total_release":108,
    "radius":1
  },
  {
    "facility":"CLEAN HARBORS EL DORADO LLC",
    "year":2003,
    "address":"309 AMERICAN CIR UNION",
    "city":"EL DORADO",
    "state":"AR",
    "zipcode":71730,
    "latitude":33.206736,
    "longitude":-92.631055,
    "total_release":109,
    "radius":1
  },
  {
    "facility":"ST CHARLES OPERATIONS (TAFT/STAR) UNION CARBIDE CORP",
    "year":1995,
    "address":"355 LA HWY 3142 (GATE 1)",
    "city":"TAFT",
    "state":"LA",
    "zipcode":70057,
    "latitude":29.981188,
    "longitude":-90.456185,
    "total_release":111,
    "radius":1
  },
  {
    "facility":"ST CHARLES OPERATIONS (TAFT/STAR) UNION CARBIDE CORP",
    "year":1987,
    "address":"355 LA HWY 3142 (GATE 1)",
    "city":"TAFT",
    "state":"LA",
    "zipcode":70057,
    "latitude":29.981188,
    "longitude":-90.456185,
    "total_release":112,
    "radius":1
  },
  {
    "facility":"ONA POLYMERS LLC",
    "year":1990,
    "address":"2326 LONNECKER DR",
    "city":"GARLAND",
    "state":"TX",
    "zipcode":75041,
    "latitude":32.888819,
    "longitude":-96.672738,
    "total_release":113,
    "radius":1
  },
  {
    "facility":"ST CHARLES OPERATIONS (TAFT/STAR) UNION CARBIDE CORP",
    "year":1993,
    "address":"355 LA HWY 3142 (GATE 1)",
    "city":"TAFT",
    "state":"LA",
    "zipcode":70057,
    "latitude":29.981188,
    "longitude":-90.456185,
    "total_release":113,
    "radius":1
  },
  {
    "facility":"OCCIDENTAL CHEMICAL CORP",
    "year":1988,
    "address":"6200 S RIDGE RD",
    "city":"WICHITA",
    "state":"KS",
    "zipcode":67215,
    "latitude":37.582364,
    "longitude":-97.42097,
    "total_release":115,
    "radius":1
  },
  {
    "facility":"ST CHARLES OPERATIONS (TAFT/STAR) UNION CARBIDE CORP",
    "year":1994,
    "address":"355 LA HWY 3142 (GATE 1)",
    "city":"TAFT",
    "state":"LA",
    "zipcode":70057,
    "latitude":29.981188,
    "longitude":-90.456185,
    "total_release":116,
    "radius":1
  },
  {
    "facility":"HUNTSMAN ETHYLENEAMINES PLANT",
    "year":2010,
    "address":"307 COUNTY RD 624 A1  A38 BLOCK",
    "city":"FREEPORT",
    "state":"TX",
    "zipcode":77541,
    "latitude":28.955497,
    "longitude":-95.336967,
    "total_release":118,
    "radius":1
  },
  {
    "facility":"HERITAGE THERMAL SERVICES",
    "year":2012,
    "address":"1250 ST GEORGE ST",
    "city":"EAST LIVERPOOL",
    "state":"OH",
    "zipcode":439205915,
    "latitude":40.632023,
    "longitude":-80.547388,
    "total_release":123.29,
    "radius":1
  },
  {
    "facility":"HUNTSMAN ETHYLENEAMINES PLANT",
    "year":2001,
    "address":"307 COUNTY RD 624 A1  A38 BLOCK",
    "city":"FREEPORT",
    "state":"TX",
    "zipcode":77541,
    "latitude":28.955497,
    "longitude":-95.336967,
    "total_release":124,
    "radius":1
  },
  {
    "facility":"THE DOW CHEMICAL CO",
    "year":2010,
    "address":"1790 BUILDING",
    "city":"MIDLAND",
    "state":"MI",
    "zipcode":48667,
    "latitude":43.6084,
    "longitude":-84.238911,
    "total_release":124,
    "radius":1
  },
  {
    "facility":"OCCIDENTAL CHEMICAL HOLDING CORP - GEISMAR PLANT",
    "year":1999,
    "address":"8318 ASHLAND RD",
    "city":"GEISMAR",
    "state":"LA",
    "zipcode":70734,
    "latitude":30.197397,
    "longitude":-90.965052,
    "total_release":125,
    "radius":1
  },
  {
    "facility":"CLEAN HARBORS EL DORADO LLC",
    "year":2004,
    "address":"309 AMERICAN CIR UNION",
    "city":"EL DORADO",
    "state":"AR",
    "zipcode":71730,
    "latitude":33.206736,
    "longitude":-92.631055,
    "total_release":126,
    "radius":1
  },
  {
    "facility":"OXY VINYLS LP LOUISVILLE",
    "year":2009,
    "address":"4014 BELLS LN",
    "city":"LOUISVILLE",
    "state":"KY",
    "zipcode":40211,
    "latitude":38.222628,
    "longitude":-85.823588,
    "total_release":126,
    "radius":1
  },
  {
    "facility":"HERITAGE THERMAL SERVICES",
    "year":2011,
    "address":"1250 ST GEORGE ST",
    "city":"EAST LIVERPOOL",
    "state":"OH",
    "zipcode":439205915,
    "latitude":40.632023,
    "longitude":-80.547388,
    "total_release":127.22,
    "radius":1
  },
  {
    "facility":"OCCIDENTAL CHEMICAL CORP",
    "year":1995,
    "address":"4133 HWY 361",
    "city":"GREGORY",
    "state":"TX",
    "zipcode":78359,
    "latitude":27.915007,
    "longitude":-97.277867,
    "total_release":130,
    "radius":1
  },
  {
    "facility":"LUBRIZOL ADVANCED MATERIALS INC",
    "year":2006,
    "address":"4200 BELLS LN",
    "city":"LOUISVILLE",
    "state":"KY",
    "zipcode":402112147,
    "latitude":38.222486,
    "longitude":-85.829256,
    "total_release":132,
    "radius":1
  },
  {
    "facility":"AIR PRODUCTS & CHEMICALS INC",
    "year":2000,
    "address":"412 N MAIN ST",
    "city":"CALVERT CITY",
    "state":"KY",
    "zipcode":420290097,
    "latitude":37.032872,
    "longitude":-88.350319,
    "total_release":133,
    "radius":1
  },
  {
    "facility":"AIR PRODUCTS & CHEMICALS INC",
    "year":1991,
    "address":"412 N MAIN ST",
    "city":"CALVERT CITY",
    "state":"KY",
    "zipcode":420290097,
    "latitude":37.032872,
    "longitude":-88.350319,
    "total_release":134,
    "radius":1
  },
  {
    "facility":"AIR PRODUCTS & CHEMICALS INC",
    "year":1992,
    "address":"412 N MAIN ST",
    "city":"CALVERT CITY",
    "state":"KY",
    "zipcode":420290097,
    "latitude":37.032872,
    "longitude":-88.350319,
    "total_release":137,
    "radius":1
  },
  {
    "facility":"HERITAGE THERMAL SERVICES",
    "year":2008,
    "address":"1250 ST GEORGE ST",
    "city":"EAST LIVERPOOL",
    "state":"OH",
    "zipcode":439205915,
    "latitude":40.632023,
    "longitude":-80.547388,
    "total_release":140.41,
    "radius":1
  },
  {
    "facility":"AIR PRODUCTS & CHEMICALS INC",
    "year":1995,
    "address":"412 N MAIN ST",
    "city":"CALVERT CITY",
    "state":"KY",
    "zipcode":420290097,
    "latitude":37.032872,
    "longitude":-88.350319,
    "total_release":142,
    "radius":1
  },
  {
    "facility":"AIR PRODUCTS & CHEMICALS INC",
    "year":1993,
    "address":"412 N MAIN ST",
    "city":"CALVERT CITY",
    "state":"KY",
    "zipcode":420290097,
    "latitude":37.032872,
    "longitude":-88.350319,
    "total_release":143,
    "radius":1
  },
  {
    "facility":"ST CHARLES OPERATIONS (TAFT/STAR) UNION CARBIDE CORP",
    "year":1989,
    "address":"355 LA HWY 3142 (GATE 1)",
    "city":"TAFT",
    "state":"LA",
    "zipcode":70057,
    "latitude":29.981188,
    "longitude":-90.456185,
    "total_release":145,
    "radius":1
  },
  {
    "facility":"OCCIDENTAL CHEMICAL CORP",
    "year":1993,
    "address":"4133 HWY 361",
    "city":"GREGORY",
    "state":"TX",
    "zipcode":78359,
    "latitude":27.915007,
    "longitude":-97.277867,
    "total_release":148,
    "radius":1
  },
  {
    "facility":"US AMINES (PORTSMOUTH) LLC",
    "year":2003,
    "address":"3230 W NORFOLK RD",
    "city":"PORTSMOUTH",
    "state":"VA",
    "zipcode":23703,
    "latitude":36.860855,
    "longitude":-76.342564,
    "total_release":149,
    "radius":1
  },
  {
    "facility":"THE DOW CHEMICAL CO - LOUISIANA OPERATIONS",
    "year":2012,
    "address":"21255 LA HWY 1 S",
    "city":"PLAQUEMINE",
    "state":"LA",
    "zipcode":70764,
    "latitude":30.32222,
    "longitude":-91.252348,
    "total_release":150,
    "radius":1
  },
  {
    "facility":"UNION CARBIDE CORP TUCKER LATEX PLANT",
    "year":1996,
    "address":"2043 STEEL DR",
    "city":"TUCKER",
    "state":"GA",
    "zipcode":30084,
    "latitude":33.842728,
    "longitude":-84.235481,
    "total_release":155,
    "radius":1
  },
  {
    "facility":"THE DOW CHEMICAL CO - LOUISIANA OPERATIONS",
    "year":2014,
    "address":"21255 LA HWY 1 S",
    "city":"PLAQUEMINE",
    "state":"LA",
    "zipcode":70764,
    "latitude":30.32222,
    "longitude":-91.252348,
    "total_release":156,
    "radius":1
  },
  {
    "facility":"AIR PRODUCTS & CHEMICALS INC",
    "year":1994,
    "address":"412 N MAIN ST",
    "city":"CALVERT CITY",
    "state":"KY",
    "zipcode":420290097,
    "latitude":37.032872,
    "longitude":-88.350319,
    "total_release":164,
    "radius":1
  },
  {
    "facility":"ST CHARLES OPERATIONS (TAFT/STAR) UNION CARBIDE CORP",
    "year":1997,
    "address":"355 LA HWY 3142 (GATE 1)",
    "city":"TAFT",
    "state":"LA",
    "zipcode":70057,
    "latitude":29.981188,
    "longitude":-90.456185,
    "total_release":164,
    "radius":1
  },
  {
    "facility":"ST CHARLES OPERATIONS (TAFT/STAR) UNION CARBIDE CORP",
    "year":1996,
    "address":"355 LA HWY 3142 (GATE 1)",
    "city":"TAFT",
    "state":"LA",
    "zipcode":70057,
    "latitude":29.981188,
    "longitude":-90.456185,
    "total_release":169,
    "radius":1
  },
  {
    "facility":"LUBRIZOL ADVANCED MATERIALS INC",
    "year":2014,
    "address":"4200 BELLS LN",
    "city":"LOUISVILLE",
    "state":"KY",
    "zipcode":402112147,
    "latitude":38.222486,
    "longitude":-85.829256,
    "total_release":170,
    "radius":1
  },
  {
    "facility":"LUBRIZOL ADVANCED MATERIALS INC",
    "year":2012,
    "address":"4200 BELLS LN",
    "city":"LOUISVILLE",
    "state":"KY",
    "zipcode":402112147,
    "latitude":38.222486,
    "longitude":-85.829256,
    "total_release":175,
    "radius":1
  },
  {
    "facility":"NORTH EAST CHEMICAL CORP.",
    "year":1998,
    "address":"3301 MONROE AVE.",
    "city":"CLEVELAND",
    "state":"OH",
    "zipcode":441133958,
    "latitude":41.477837,
    "longitude":-81.707377,
    "total_release":182,
    "radius":1
  },
  {
    "facility":"CLEAN HARBORS EL DORADO LLC",
    "year":2005,
    "address":"309 AMERICAN CIR UNION",
    "city":"EL DORADO",
    "state":"AR",
    "zipcode":71730,
    "latitude":33.206736,
    "longitude":-92.631055,
    "total_release":186,
    "radius":1
  },
  {
    "facility":"LUBRIZOL ADVANCED MATERIALS INC",
    "year":2011,
    "address":"4200 BELLS LN",
    "city":"LOUISVILLE",
    "state":"KY",
    "zipcode":402112147,
    "latitude":38.222486,
    "longitude":-85.829256,
    "total_release":187,
    "radius":1
  },
  {
    "facility":"CLEAN HARBORS EL DORADO LLC",
    "year":2010,
    "address":"309 AMERICAN CIR UNION",
    "city":"EL DORADO",
    "state":"AR",
    "zipcode":71730,
    "latitude":33.206736,
    "longitude":-92.631055,
    "total_release":190.89,
    "radius":1
  },
  {
    "facility":"LUBRIZOL ADVANCED MATERIALS INC",
    "year":2013,
    "address":"4200 BELLS LN",
    "city":"LOUISVILLE",
    "state":"KY",
    "zipcode":402112147,
    "latitude":38.222486,
    "longitude":-85.829256,
    "total_release":191,
    "radius":1
  },
  {
    "facility":"LUBRIZOL ADVANCED MATERIALS INC",
    "year":2008,
    "address":"4200 BELLS LN",
    "city":"LOUISVILLE",
    "state":"KY",
    "zipcode":402112147,
    "latitude":38.222486,
    "longitude":-85.829256,
    "total_release":202,
    "radius":1
  },
  {
    "facility":"CLEAN HARBORS EL DORADO LLC",
    "year":2008,
    "address":"309 AMERICAN CIR UNION",
    "city":"EL DORADO",
    "state":"AR",
    "zipcode":71730,
    "latitude":33.206736,
    "longitude":-92.631055,
    "total_release":203,
    "radius":1
  },
  {
    "facility":"SOLVAY USA INC",
    "year":1992,
    "address":"1275 AIRLINE HWY",
    "city":"BATON ROUGE",
    "state":"LA",
    "zipcode":70805,
    "latitude":30.508306,
    "longitude":-91.178819,
    "total_release":210,
    "radius":1
  },
  {
    "facility":"DELPHI AUTOMOTIVE HOLDINGS GRO UP  - HOME AVENUE OPERATIONS",
    "year":1991,
    "address":"2701 HOME AVE",
    "city":"DAYTON",
    "state":"OH",
    "zipcode":45417,
    "latitude":39.74747,
    "longitude":-84.238709,
    "total_release":223,
    "radius":1
  },
  {
    "facility":"OCCIDENTAL CHEMICAL HOLDING CORP - GEISMAR PLANT",
    "year":2008,
    "address":"8318 ASHLAND RD",
    "city":"GEISMAR",
    "state":"LA",
    "zipcode":70734,
    "latitude":30.197397,
    "longitude":-90.965052,
    "total_release":228,
    "radius":1
  },
  {
    "facility":"GEORGIA GULF LAKE CHARLES LLC",
    "year":1999,
    "address":"1600 VCM PLANT RD",
    "city":"WESTLAKE",
    "state":"LA",
    "zipcode":70669,
    "latitude":30.24955,
    "longitude":-93.287538,
    "total_release":231,
    "radius":1
  },
  {
    "facility":"OCCIDENTAL CHEMICAL HOLDING CORP - GEISMAR PLANT",
    "year":2009,
    "address":"8318 ASHLAND RD",
    "city":"GEISMAR",
    "state":"LA",
    "zipcode":70734,
    "latitude":30.197397,
    "longitude":-90.965052,
    "total_release":233.38,
    "radius":1
  },
  {
    "facility":"OCCIDENTAL CHEMICAL HOLDING CORP - GEISMAR PLANT",
    "year":2004,
    "address":"8318 ASHLAND RD",
    "city":"GEISMAR",
    "state":"LA",
    "zipcode":70734,
    "latitude":30.197397,
    "longitude":-90.965052,
    "total_release":239,
    "radius":1
  },
  {
    "facility":"GENERAL CABLE INDUSTRIES LLC",
    "year":1989,
    "address":"1075 N. AVE.",
    "city":"SANGER",
    "state":"CA",
    "zipcode":936573539,
    "latitude":36.701179,
    "longitude":-119.556289,
    "total_release":250,
    "radius":1
  },
  {
    "facility":"GM TRUCK GROUP LINDEN ASSEMBLY",
    "year":1989,
    "address":"1016 W EDGAR RD",
    "city":"LINDEN",
    "state":"NJ",
    "zipcode":7036,
    "latitude":40.617976,
    "longitude":-74.256731,
    "total_release":250,
    "radius":1
  },
  {
    "facility":"HERITAGE THERMAL SERVICES",
    "year":2005,
    "address":"1250 ST GEORGE ST",
    "city":"EAST LIVERPOOL",
    "state":"OH",
    "zipcode":439205915,
    "latitude":40.632023,
    "longitude":-80.547388,
    "total_release":250,
    "radius":1
  },
  {
    "facility":"VOPAK LOGISTICS SERVICES USA INC DEER PARK",
    "year":1998,
    "address":"2759 INDEPENDENCE PKWY S",
    "city":"DEER PARK",
    "state":"TX",
    "zipcode":775360897,
    "latitude":29.74284,
    "longitude":-95.089957,
    "total_release":250,
    "radius":1
  },
  {
    "facility":"LUBRIZOL ADVANCED MATERIALS INC",
    "year":2007,
    "address":"4200 BELLS LN",
    "city":"LOUISVILLE",
    "state":"KY",
    "zipcode":402112147,
    "latitude":38.222486,
    "longitude":-85.829256,
    "total_release":251,
    "radius":1
  },
  {
    "facility":"OCCIDENTAL CHEMICAL HOLDING CORP - GEISMAR PLANT",
    "year":2000,
    "address":"8318 ASHLAND RD",
    "city":"GEISMAR",
    "state":"LA",
    "zipcode":70734,
    "latitude":30.197397,
    "longitude":-90.965052,
    "total_release":254,
    "radius":1
  },
  {
    "facility":"HERITAGE THERMAL SERVICES",
    "year":2001,
    "address":"1250 ST GEORGE ST",
    "city":"EAST LIVERPOOL",
    "state":"OH",
    "zipcode":439205915,
    "latitude":40.632023,
    "longitude":-80.547388,
    "total_release":255,
    "radius":1
  },
  {
    "facility":"HERITAGE THERMAL SERVICES",
    "year":2002,
    "address":"1250 ST GEORGE ST",
    "city":"EAST LIVERPOOL",
    "state":"OH",
    "zipcode":439205915,
    "latitude":40.632023,
    "longitude":-80.547388,
    "total_release":255,
    "radius":1
  },
  {
    "facility":"HERITAGE THERMAL SERVICES",
    "year":2003,
    "address":"1250 ST GEORGE ST",
    "city":"EAST LIVERPOOL",
    "state":"OH",
    "zipcode":439205915,
    "latitude":40.632023,
    "longitude":-80.547388,
    "total_release":255,
    "radius":1
  },
  {
    "facility":"HERITAGE THERMAL SERVICES",
    "year":2004,
    "address":"1250 ST GEORGE ST",
    "city":"EAST LIVERPOOL",
    "state":"OH",
    "zipcode":439205915,
    "latitude":40.632023,
    "longitude":-80.547388,
    "total_release":255,
    "radius":1
  },
  {
    "facility":"HERITAGE THERMAL SERVICES",
    "year":2006,
    "address":"1250 ST GEORGE ST",
    "city":"EAST LIVERPOOL",
    "state":"OH",
    "zipcode":439205915,
    "latitude":40.632023,
    "longitude":-80.547388,
    "total_release":255,
    "radius":1
  },
  {
    "facility":"HERITAGE THERMAL SERVICES",
    "year":2007,
    "address":"1250 ST GEORGE ST",
    "city":"EAST LIVERPOOL",
    "state":"OH",
    "zipcode":439205915,
    "latitude":40.632023,
    "longitude":-80.547388,
    "total_release":255,
    "radius":1
  },
  {
    "facility":"KEYSTONE CEMENT CO",
    "year":2007,
    "address":"RT 329",
    "city":"BATH",
    "state":"PA",
    "zipcode":180140058,
    "latitude":40.725652,
    "longitude":-75.39407,
    "total_release":255,
    "radius":1
  },
  {
    "facility":"DUPONT CORPUS CHRISTI PLANT",
    "year":1996,
    "address":"HWY 361",
    "city":"GREGORY",
    "state":"TX",
    "zipcode":78359,
    "latitude":27.922244,
    "longitude":-97.289991,
    "total_release":259,
    "radius":1
  },
  {
    "facility":"UNION CARBIDE CORP TUCKER LATEX PLANT",
    "year":1994,
    "address":"2043 STEEL DR",
    "city":"TUCKER",
    "state":"GA",
    "zipcode":30084,
    "latitude":33.842728,
    "longitude":-84.235481,
    "total_release":265,
    "radius":1
  },
  {
    "facility":"SOLVAY USA INC",
    "year":1993,
    "address":"1275 AIRLINE HWY",
    "city":"BATON ROUGE",
    "state":"LA",
    "zipcode":70805,
    "latitude":30.508306,
    "longitude":-91.178819,
    "total_release":269,
    "radius":1
  },
  {
    "facility":"MPM SILICONES LLC",
    "year":1988,
    "address":"260 HUDSON RIVER RD",
    "city":"WATERFORD",
    "state":"NY",
    "zipcode":12188,
    "latitude":42.816976,
    "longitude":-73.669422,
    "total_release":272,
    "radius":1
  },
  {
    "facility":"LUBRIZOL ADVANCED MATERIALS INC",
    "year":2009,
    "address":"4200 BELLS LN",
    "city":"LOUISVILLE",
    "state":"KY",
    "zipcode":402112147,
    "latitude":38.222486,
    "longitude":-85.829256,
    "total_release":277,
    "radius":1
  },
  {
    "facility":"OCCIDENTAL CHEMICAL HOLDING CORP - GEISMAR PLANT",
    "year":1995,
    "address":"8318 ASHLAND RD",
    "city":"GEISMAR",
    "state":"LA",
    "zipcode":70734,
    "latitude":30.197397,
    "longitude":-90.965052,
    "total_release":279,
    "radius":1
  },
  {
    "facility":"POLYONE CORP",
    "year":1995,
    "address":"MOORE & WALKER RD",
    "city":"AVON LAKE",
    "state":"OH",
    "zipcode":44012,
    "latitude":41.493381,
    "longitude":-82.046966,
    "total_release":281,
    "radius":1
  },
  {
    "facility":"LUBRIZOL ADVANCED MATERIALS INC",
    "year":2010,
    "address":"4200 BELLS LN",
    "city":"LOUISVILLE",
    "state":"KY",
    "zipcode":402112147,
    "latitude":38.222486,
    "longitude":-85.829256,
    "total_release":288,
    "radius":1
  },
  {
    "facility":"UNION CARBIDE CORP TUCKER LATEX PLANT",
    "year":1995,
    "address":"2043 STEEL DR",
    "city":"TUCKER",
    "state":"GA",
    "zipcode":30084,
    "latitude":33.842728,
    "longitude":-84.235481,
    "total_release":295,
    "radius":1
  },
  {
    "facility":"AIR PRODUCTS & CHEMICALS INC",
    "year":2008,
    "address":"412 N MAIN ST",
    "city":"CALVERT CITY",
    "state":"KY",
    "zipcode":420290097,
    "latitude":37.032872,
    "longitude":-88.350319,
    "total_release":302,
    "radius":1
  },
  {
    "facility":"ONA POLYMERS LLC",
    "year":1988,
    "address":"2326 LONNECKER DR",
    "city":"GARLAND",
    "state":"TX",
    "zipcode":75041,
    "latitude":32.888819,
    "longitude":-96.672738,
    "total_release":311,
    "radius":1
  },
  {
    "facility":"ARKEMA COATING RESINS PLANT",
    "year":1994,
    "address":"19206 HAWTHORNE BLVD",
    "city":"TORRANCE",
    "state":"CA",
    "zipcode":90503,
    "latitude":33.826103,
    "longitude":-118.351475,
    "total_release":347,
    "radius":1
  },
  {
    "facility":"DELPHI AUTOMOTIVE HOLDINGS GRO UP  - HOME AVENUE OPERATIONS",
    "year":1990,
    "address":"2701 HOME AVE",
    "city":"DAYTON",
    "state":"OH",
    "zipcode":45417,
    "latitude":39.74747,
    "longitude":-84.238709,
    "total_release":351,
    "radius":1
  },
  {
    "facility":"ST CHARLES OPERATIONS (TAFT/STAR) UNION CARBIDE CORP",
    "year":2007,
    "address":"355 LA HWY 3142 (GATE 1)",
    "city":"TAFT",
    "state":"LA",
    "zipcode":70057,
    "latitude":29.981188,
    "longitude":-90.456185,
    "total_release":362,
    "radius":1
  },
  {
    "facility":"OCCIDENTAL CHEMICAL HOLDING CORP - GEISMAR PLANT",
    "year":2005,
    "address":"8318 ASHLAND RD",
    "city":"GEISMAR",
    "state":"LA",
    "zipcode":70734,
    "latitude":30.197397,
    "longitude":-90.965052,
    "total_release":367,
    "radius":1
  },
  {
    "facility":"DUPONT CORPUS CHRISTI PLANT",
    "year":1997,
    "address":"HWY 361",
    "city":"GREGORY",
    "state":"TX",
    "zipcode":78359,
    "latitude":27.922244,
    "longitude":-97.289991,
    "total_release":379,
    "radius":1
  },
  {
    "facility":"MPM SILICONES LLC",
    "year":1989,
    "address":"260 HUDSON RIVER RD",
    "city":"WATERFORD",
    "state":"NY",
    "zipcode":12188,
    "latitude":42.816976,
    "longitude":-73.669422,
    "total_release":382,
    "radius":1
  },
  {
    "facility":"OCCIDENTAL CHEMICAL HOLDING CORP - GEISMAR PLANT",
    "year":2007,
    "address":"8318 ASHLAND RD",
    "city":"GEISMAR",
    "state":"LA",
    "zipcode":70734,
    "latitude":30.197397,
    "longitude":-90.965052,
    "total_release":389,
    "radius":1
  },
  {
    "facility":"LUBRIZOL ADVANCED MATERIALS INC",
    "year":2004,
    "address":"4200 BELLS LN",
    "city":"LOUISVILLE",
    "state":"KY",
    "zipcode":402112147,
    "latitude":38.222486,
    "longitude":-85.829256,
    "total_release":391,
    "radius":1
  },
  {
    "facility":"ST CHARLES OPERATIONS (TAFT/STAR) UNION CARBIDE CORP",
    "year":2001,
    "address":"355 LA HWY 3142 (GATE 1)",
    "city":"TAFT",
    "state":"LA",
    "zipcode":70057,
    "latitude":29.981188,
    "longitude":-90.456185,
    "total_release":405,
    "radius":1
  },
  {
    "facility":"OCCIDENTAL CHEMICAL HOLDING CORP - GEISMAR PLANT",
    "year":1990,
    "address":"8318 ASHLAND RD",
    "city":"GEISMAR",
    "state":"LA",
    "zipcode":70734,
    "latitude":30.197397,
    "longitude":-90.965052,
    "total_release":410,
    "radius":1
  },
  {
    "facility":"TEXAS TILE MANUFACTURING LLC",
    "year":2009,
    "address":"1705 N OLIVER",
    "city":"HOUSTON",
    "state":"TX",
    "zipcode":77007,
    "latitude":29.774521,
    "longitude":-95.387754,
    "total_release":416,
    "radius":1
  },
  {
    "facility":"OCCIDENTAL CHEMICAL HOLDING CORP - GEISMAR PLANT",
    "year":1998,
    "address":"8318 ASHLAND RD",
    "city":"GEISMAR",
    "state":"LA",
    "zipcode":70734,
    "latitude":30.197397,
    "longitude":-90.965052,
    "total_release":433,
    "radius":1
  },
  {
    "facility":"CLEAN HARBORS EL DORADO LLC",
    "year":1999,
    "address":"309 AMERICAN CIR UNION",
    "city":"EL DORADO",
    "state":"AR",
    "zipcode":71730,
    "latitude":33.206736,
    "longitude":-92.631055,
    "total_release":461,
    "radius":1
  },
  {
    "facility":"ST CHARLES OPERATIONS (TAFT/STAR) UNION CARBIDE CORP",
    "year":1999,
    "address":"355 LA HWY 3142 (GATE 1)",
    "city":"TAFT",
    "state":"LA",
    "zipcode":70057,
    "latitude":29.981188,
    "longitude":-90.456185,
    "total_release":461,
    "radius":1
  },
  {
    "facility":"MARINE SHALE PROCESSORS INC.",
    "year":1991,
    "address":"9828 HWY. 90",
    "city":"AMELIA",
    "state":"LA",
    "zipcode":70340,
    "latitude":29.671067,
    "longitude":-91.105544,
    "total_release":490,
    "radius":1
  },
  {
    "facility":"THE DOW CHEMICAL CO",
    "year":2004,
    "address":"1790 BUILDING",
    "city":"MIDLAND",
    "state":"MI",
    "zipcode":48667,
    "latitude":43.6084,
    "longitude":-84.238911,
    "total_release":490,
    "radius":1
  },
  {
    "facility":"ST CHARLES OPERATIONS (TAFT/STAR) UNION CARBIDE CORP",
    "year":2006,
    "address":"355 LA HWY 3142 (GATE 1)",
    "city":"TAFT",
    "state":"LA",
    "zipcode":70057,
    "latitude":29.981188,
    "longitude":-90.456185,
    "total_release":499,
    "radius":1
  },
  {
    "facility":"AIR PRODUCTS & CHEMICALS INC",
    "year":1990,
    "address":"412 N MAIN ST",
    "city":"CALVERT CITY",
    "state":"KY",
    "zipcode":420290097,
    "latitude":37.032872,
    "longitude":-88.350319,
    "total_release":500,
    "radius":1
  },
  {
    "facility":"GUIDE INDIANA LLC",
    "year":1990,
    "address":"2915 MARTIN LUTHER KING  JR. BLVD",
    "city":"ANDERSON",
    "state":"IN",
    "zipcode":46016,
    "latitude":33.342343,
    "longitude":-91.042325,
    "total_release":500,
    "radius":1
  },
  {
    "facility":"KANEKA NA LLC",
    "year":2008,
    "address":"6161 UNDERWOOD RD",
    "city":"PASADENA",
    "state":"TX",
    "zipcode":77507,
    "latitude":29.619734,
    "longitude":-95.086412,
    "total_release":500,
    "radius":1
  },
  {
    "facility":"LUBRIZOL",
    "year":1988,
    "address":"207 TELEGRAPH DR",
    "city":"GASTONIA",
    "state":"NC",
    "zipcode":28056,
    "latitude":35.201667,
    "longitude":-81.208796,
    "total_release":500,
    "radius":1
  },
  {
    "facility":"OCCIDENTAL CHEMICAL HOLDING CORP - GEISMAR PLANT",
    "year":1996,
    "address":"8318 ASHLAND RD",
    "city":"GEISMAR",
    "state":"LA",
    "zipcode":70734,
    "latitude":30.197397,
    "longitude":-90.965052,
    "total_release":500,
    "radius":1
  },
  {
    "facility":"VEOLIA ES TECHNICAL SOLUTIONS LLC",
    "year":1999,
    "address":"1704 W 1ST ST",
    "city":"AZUSA",
    "state":"CA",
    "zipcode":917023203,
    "latitude":34.121343,
    "longitude":-117.936064,
    "total_release":500,
    "radius":1
  },
  {
    "facility":"LUBRIZOL ADVANCED MATERIALS INC",
    "year":2003,
    "address":"4200 BELLS LN",
    "city":"LOUISVILLE",
    "state":"KY",
    "zipcode":402112147,
    "latitude":38.222486,
    "longitude":-85.829256,
    "total_release":510,
    "radius":1
  },
  {
    "facility":"DELPHI AUTOMOTIVE HOLDINGS GRO UP  - HOME AVENUE OPERATIONS",
    "year":1989,
    "address":"2701 HOME AVE",
    "city":"DAYTON",
    "state":"OH",
    "zipcode":45417,
    "latitude":39.74747,
    "longitude":-84.238709,
    "total_release":521,
    "radius":1
  },
  {
    "facility":"THE DOW CHEMICAL CO",
    "year":2002,
    "address":"1790 BUILDING",
    "city":"MIDLAND",
    "state":"MI",
    "zipcode":48667,
    "latitude":43.6084,
    "longitude":-84.238911,
    "total_release":530,
    "radius":1
  },
  {
    "facility":"THE DOW CHEMICAL CO",
    "year":2007,
    "address":"1790 BUILDING",
    "city":"MIDLAND",
    "state":"MI",
    "zipcode":48667,
    "latitude":43.6084,
    "longitude":-84.238911,
    "total_release":530,
    "radius":1
  },
  {
    "facility":"BAYER CROPSCIENCE",
    "year":1997,
    "address":"8400 HAWTHORN RD",
    "city":"KANSAS CITY",
    "state":"MO",
    "zipcode":641200013,
    "latitude":39.121834,
    "longitude":-94.478735,
    "total_release":550,
    "radius":1
  },
  {
    "facility":"BAYER CROPSCIENCE",
    "year":1995,
    "address":"8400 HAWTHORN RD",
    "city":"KANSAS CITY",
    "state":"MO",
    "zipcode":641200013,
    "latitude":39.121834,
    "longitude":-94.478735,
    "total_release":553,
    "radius":1
  },
  {
    "facility":"THE DOW CHEMICAL CO",
    "year":2013,
    "address":"1790 BUILDING",
    "city":"MIDLAND",
    "state":"MI",
    "zipcode":48667,
    "latitude":43.6084,
    "longitude":-84.238911,
    "total_release":570,
    "radius":1
  },
  {
    "facility":"DUPONT CORPUS CHRISTI PLANT",
    "year":1998,
    "address":"HWY 361",
    "city":"GREGORY",
    "state":"TX",
    "zipcode":78359,
    "latitude":27.922244,
    "longitude":-97.289991,
    "total_release":579,
    "radius":1
  },
  {
    "facility":"OCCIDENTAL CHEMICAL HOLDING CORP - GEISMAR PLANT",
    "year":1988,
    "address":"8318 ASHLAND RD",
    "city":"GEISMAR",
    "state":"LA",
    "zipcode":70734,
    "latitude":30.197397,
    "longitude":-90.965052,
    "total_release":600,
    "radius":1
  },
  {
    "facility":"THE DOW CHEMICAL CO",
    "year":2008,
    "address":"1790 BUILDING",
    "city":"MIDLAND",
    "state":"MI",
    "zipcode":48667,
    "latitude":43.6084,
    "longitude":-84.238911,
    "total_release":600,
    "radius":1
  },
  {
    "facility":"OCCIDENTAL CHEMICAL HOLDING CORP - GEISMAR PLANT",
    "year":2013,
    "address":"8318 ASHLAND RD",
    "city":"GEISMAR",
    "state":"LA",
    "zipcode":70734,
    "latitude":30.197397,
    "longitude":-90.965052,
    "total_release":604.39,
    "radius":1
  },
  {
    "facility":"OCCIDENTAL CHEMICAL HOLDING CORP - GEISMAR PLANT",
    "year":1994,
    "address":"8318 ASHLAND RD",
    "city":"GEISMAR",
    "state":"LA",
    "zipcode":70734,
    "latitude":30.197397,
    "longitude":-90.965052,
    "total_release":610,
    "radius":1
  },
  {
    "facility":"KEYSOR-CENTURY CORP.",
    "year":1989,
    "address":"26000 SPRINGBROOK AVE.",
    "city":"SAUGUS",
    "state":"CA",
    "zipcode":91350,
    "latitude":34.415376,
    "longitude":-118.539258,
    "total_release":620,
    "radius":1
  },
  {
    "facility":"CLEAN HARBORS EL DORADO LLC",
    "year":2002,
    "address":"309 AMERICAN CIR UNION",
    "city":"EL DORADO",
    "state":"AR",
    "zipcode":71730,
    "latitude":33.206736,
    "longitude":-92.631055,
    "total_release":624,
    "radius":1
  },
  {
    "facility":"DUPONT CORPUS CHRISTI PLANT",
    "year":2000,
    "address":"HWY 361",
    "city":"GREGORY",
    "state":"TX",
    "zipcode":78359,
    "latitude":27.922244,
    "longitude":-97.289991,
    "total_release":632,
    "radius":1
  },
  {
    "facility":"UNION CARBIDE CORP TEXAS CITY PLANT",
    "year":1988,
    "address":"3301 5TH AVE S",
    "city":"TEXAS CITY",
    "state":"TX",
    "zipcode":77590,
    "latitude":29.379202,
    "longitude":-94.94478,
    "total_release":642,
    "radius":1
  },
  {
    "facility":"OCCIDENTAL CHEMICAL HOLDING CORP - GEISMAR PLANT",
    "year":1989,
    "address":"8318 ASHLAND RD",
    "city":"GEISMAR",
    "state":"LA",
    "zipcode":70734,
    "latitude":30.197397,
    "longitude":-90.965052,
    "total_release":650,
    "radius":1
  },
  {
    "facility":"OCCIDENTAL CHEMICAL HOLDING CORP - GEISMAR PLANT",
    "year":1993,
    "address":"8318 ASHLAND RD",
    "city":"GEISMAR",
    "state":"LA",
    "zipcode":70734,
    "latitude":30.197397,
    "longitude":-90.965052,
    "total_release":650,
    "radius":1
  },
  {
    "facility":"SOLITE LLC",
    "year":1999,
    "address":"RT 652",
    "city":"ARVONIA",
    "state":"VA",
    "zipcode":23004,
    "latitude":37.683478,
    "longitude":-78.341392,
    "total_release":652,
    "radius":1
  },
  {
    "facility":"ST CHARLES OPERATIONS (TAFT/STAR) UNION CARBIDE CORP",
    "year":2003,
    "address":"355 LA HWY 3142 (GATE 1)",
    "city":"TAFT",
    "state":"LA",
    "zipcode":70057,
    "latitude":29.981188,
    "longitude":-90.456185,
    "total_release":669,
    "radius":1
  },
  {
    "facility":"THE DOW CHEMICAL CO",
    "year":2009,
    "address":"1790 BUILDING",
    "city":"MIDLAND",
    "state":"MI",
    "zipcode":48667,
    "latitude":43.6084,
    "longitude":-84.238911,
    "total_release":680,
    "radius":1
  },
  {
    "facility":"ST CHARLES OPERATIONS (TAFT/STAR) UNION CARBIDE CORP",
    "year":2000,
    "address":"355 LA HWY 3142 (GATE 1)",
    "city":"TAFT",
    "state":"LA",
    "zipcode":70057,
    "latitude":29.981188,
    "longitude":-90.456185,
    "total_release":685,
    "radius":1
  },
  {
    "facility":"HERITAGE THERMAL SERVICES",
    "year":1999,
    "address":"1250 ST GEORGE ST",
    "city":"EAST LIVERPOOL",
    "state":"OH",
    "zipcode":439205915,
    "latitude":40.632023,
    "longitude":-80.547388,
    "total_release":714,
    "radius":1
  },
  {
    "facility":"DUPONT CORPUS CHRISTI PLANT",
    "year":1999,
    "address":"HWY 361",
    "city":"GREGORY",
    "state":"TX",
    "zipcode":78359,
    "latitude":27.922244,
    "longitude":-97.289991,
    "total_release":721,
    "radius":1
  },
  {
    "facility":"ST CHARLES OPERATIONS (TAFT/STAR) UNION CARBIDE CORP",
    "year":2005,
    "address":"355 LA HWY 3142 (GATE 1)",
    "city":"TAFT",
    "state":"LA",
    "zipcode":70057,
    "latitude":29.981188,
    "longitude":-90.456185,
    "total_release":746,
    "radius":1
  },
  {
    "facility":"DUPONT CORPUS CHRISTI PLANT",
    "year":2001,
    "address":"HWY 361",
    "city":"GREGORY",
    "state":"TX",
    "zipcode":78359,
    "latitude":27.922244,
    "longitude":-97.289991,
    "total_release":749,
    "radius":1
  },
  {
    "facility":"PREMIER MATERIAL CONCEPTS SPECIALTY PRODUCTS",
    "year":2014,
    "address":"182 IND US TRIAL PARK DR",
    "city":"TRENTON",
    "state":"NC",
    "zipcode":28585,
    "latitude":35.064123,
    "longitude":-77.355185,
    "total_release":750,
    "radius":1
  },
  {
    "facility":"OCCIDENTAL CHEMICAL CORP",
    "year":1992,
    "address":"4133 HWY 361",
    "city":"GREGORY",
    "state":"TX",
    "zipcode":78359,
    "latitude":27.915007,
    "longitude":-97.277867,
    "total_release":753,
    "radius":1
  },
  {
    "facility":"MARINE SHALE PROCESSORS INC.",
    "year":1992,
    "address":"9828 HWY. 90",
    "city":"AMELIA",
    "state":"LA",
    "zipcode":70340,
    "latitude":29.671067,
    "longitude":-91.105544,
    "total_release":770,
    "radius":1
  },
  {
    "facility":"BAYER CROPSCIENCE",
    "year":1987,
    "address":"8400 HAWTHORN RD",
    "city":"KANSAS CITY",
    "state":"MO",
    "zipcode":641200013,
    "latitude":39.121834,
    "longitude":-94.478735,
    "total_release":790,
    "radius":1
  },
  {
    "facility":"ST CHARLES OPERATIONS (TAFT/STAR) UNION CARBIDE CORP",
    "year":2008,
    "address":"355 LA HWY 3142 (GATE 1)",
    "city":"TAFT",
    "state":"LA",
    "zipcode":70057,
    "latitude":29.981188,
    "longitude":-90.456185,
    "total_release":792,
    "radius":1
  },
  {
    "facility":"UNION CARBIDE CORP TEXAS CITY PLANT",
    "year":2009,
    "address":"3301 5TH AVE S",
    "city":"TEXAS CITY",
    "state":"TX",
    "zipcode":77590,
    "latitude":29.379202,
    "longitude":-94.94478,
    "total_release":798,
    "radius":1
  },
  {
    "facility":"BORDEN CHEMICALS & PLASTICS OPERATING LP",
    "year":2002,
    "address":"8600 HWY 1 S",
    "city":"ADDIS",
    "state":"LA",
    "zipcode":70710,
    "latitude":30.375342,
    "longitude":-91.252788,
    "total_release":800,
    "radius":1
  },
  {
    "facility":"CERTAINTEED CORP",
    "year":2014,
    "address":"3300 PETE MANENA RD",
    "city":"WESTLAKE",
    "state":"LA",
    "zipcode":70669,
    "latitude":30.228339,
    "longitude":-93.298407,
    "total_release":800,
    "radius":1
  },
  {
    "facility":"THE DOW CHEMICAL CO",
    "year":1988,
    "address":"1790 BUILDING",
    "city":"MIDLAND",
    "state":"MI",
    "zipcode":48667,
    "latitude":43.6084,
    "longitude":-84.238911,
    "total_release":800,
    "radius":1
  },
  {
    "facility":"CLEAN HARBORS EL DORADO LLC",
    "year":2001,
    "address":"309 AMERICAN CIR UNION",
    "city":"EL DORADO",
    "state":"AR",
    "zipcode":71730,
    "latitude":33.206736,
    "longitude":-92.631055,
    "total_release":807,
    "radius":1
  },
  {
    "facility":"ST CHARLES OPERATIONS (TAFT/STAR) UNION CARBIDE CORP",
    "year":2002,
    "address":"355 LA HWY 3142 (GATE 1)",
    "city":"TAFT",
    "state":"LA",
    "zipcode":70057,
    "latitude":29.981188,
    "longitude":-90.456185,
    "total_release":810,
    "radius":1
  },
  {
    "facility":"OCCIDENTAL CHEMICAL HOLDING CORP - GEISMAR PLANT",
    "year":2011,
    "address":"8318 ASHLAND RD",
    "city":"GEISMAR",
    "state":"LA",
    "zipcode":70734,
    "latitude":30.197397,
    "longitude":-90.965052,
    "total_release":819.26,
    "radius":1
  },
  {
    "facility":"CLEAN HARBORS EL DORADO LLC",
    "year":2000,
    "address":"309 AMERICAN CIR UNION",
    "city":"EL DORADO",
    "state":"AR",
    "zipcode":71730,
    "latitude":33.206736,
    "longitude":-92.631055,
    "total_release":820,
    "radius":1
  },
  {
    "facility":"KEYSOR-CENTURY CORP.",
    "year":1990,
    "address":"26000 SPRINGBROOK AVE.",
    "city":"SAUGUS",
    "state":"CA",
    "zipcode":91350,
    "latitude":34.415376,
    "longitude":-118.539258,
    "total_release":820,
    "radius":1
  },
  {
    "facility":"OXY VINYLS LP LOUISVILLE",
    "year":2007,
    "address":"4014 BELLS LN",
    "city":"LOUISVILLE",
    "state":"KY",
    "zipcode":40211,
    "latitude":38.222628,
    "longitude":-85.823588,
    "total_release":821,
    "radius":1
  },
  {
    "facility":"OXY VINYLS LP LOUISVILLE",
    "year":2008,
    "address":"4014 BELLS LN",
    "city":"LOUISVILLE",
    "state":"KY",
    "zipcode":40211,
    "latitude":38.222628,
    "longitude":-85.823588,
    "total_release":835,
    "radius":1
  },
  {
    "facility":"AIR PRODUCTS & CHEMICALS INC",
    "year":1996,
    "address":"412 N MAIN ST",
    "city":"CALVERT CITY",
    "state":"KY",
    "zipcode":420290097,
    "latitude":37.032872,
    "longitude":-88.350319,
    "total_release":838,
    "radius":1
  },
  {
    "facility":"AIR PRODUCTS & CHEMICALS INC",
    "year":1997,
    "address":"412 N MAIN ST",
    "city":"CALVERT CITY",
    "state":"KY",
    "zipcode":420290097,
    "latitude":37.032872,
    "longitude":-88.350319,
    "total_release":838,
    "radius":1
  },
  {
    "facility":"KEYSOR-CENTURY CORP.",
    "year":1993,
    "address":"26000 SPRINGBROOK AVE.",
    "city":"SAUGUS",
    "state":"CA",
    "zipcode":91350,
    "latitude":34.415376,
    "longitude":-118.539258,
    "total_release":849,
    "radius":1
  },
  {
    "facility":"KEYSOR-CENTURY CORP.",
    "year":1996,
    "address":"26000 SPRINGBROOK AVE.",
    "city":"SAUGUS",
    "state":"CA",
    "zipcode":91350,
    "latitude":34.415376,
    "longitude":-118.539258,
    "total_release":860,
    "radius":1
  },
  {
    "facility":"KEYSOR-CENTURY CORP.",
    "year":1997,
    "address":"26000 SPRINGBROOK AVE.",
    "city":"SAUGUS",
    "state":"CA",
    "zipcode":91350,
    "latitude":34.415376,
    "longitude":-118.539258,
    "total_release":860,
    "radius":1
  },
  {
    "facility":"ST CHARLES OPERATIONS (TAFT/STAR) UNION CARBIDE CORP",
    "year":2004,
    "address":"355 LA HWY 3142 (GATE 1)",
    "city":"TAFT",
    "state":"LA",
    "zipcode":70057,
    "latitude":29.981188,
    "longitude":-90.456185,
    "total_release":866,
    "radius":1
  },
  {
    "facility":"KEYSOR-CENTURY CORP.",
    "year":1991,
    "address":"26000 SPRINGBROOK AVE.",
    "city":"SAUGUS",
    "state":"CA",
    "zipcode":91350,
    "latitude":34.415376,
    "longitude":-118.539258,
    "total_release":875,
    "radius":1
  },
  {
    "facility":"KEYSOR-CENTURY CORP.",
    "year":1992,
    "address":"26000 SPRINGBROOK AVE.",
    "city":"SAUGUS",
    "state":"CA",
    "zipcode":91350,
    "latitude":34.415376,
    "longitude":-118.539258,
    "total_release":875,
    "radius":1
  },
  {
    "facility":"AIR PRODUCTS & CHEMICALS INC",
    "year":1998,
    "address":"412 N MAIN ST",
    "city":"CALVERT CITY",
    "state":"KY",
    "zipcode":420290097,
    "latitude":37.032872,
    "longitude":-88.350319,
    "total_release":876,
    "radius":1
  },
  {
    "facility":"AIR PRODUCTS & CHEMICALS INC",
    "year":1999,
    "address":"412 N MAIN ST",
    "city":"CALVERT CITY",
    "state":"KY",
    "zipcode":420290097,
    "latitude":37.032872,
    "longitude":-88.350319,
    "total_release":876,
    "radius":1
  },
  {
    "facility":"KEYSOR-CENTURY CORP.",
    "year":1988,
    "address":"26000 SPRINGBROOK AVE.",
    "city":"SAUGUS",
    "state":"CA",
    "zipcode":91350,
    "latitude":34.415376,
    "longitude":-118.539258,
    "total_release":890,
    "radius":1
  },
  {
    "facility":"KEYSOR-CENTURY CORP.",
    "year":1987,
    "address":"26000 SPRINGBROOK AVE.",
    "city":"SAUGUS",
    "state":"CA",
    "zipcode":91350,
    "latitude":34.415376,
    "longitude":-118.539258,
    "total_release":900,
    "radius":1
  },
  {
    "facility":"UNION CARBIDE CORP TEXAS CITY PLANT",
    "year":2008,
    "address":"3301 5TH AVE S",
    "city":"TEXAS CITY",
    "state":"TX",
    "zipcode":77590,
    "latitude":29.379202,
    "longitude":-94.94478,
    "total_release":904,
    "radius":1
  },
  {
    "facility":"UNION CARBIDE CORP TEXAS CITY PLANT",
    "year":2007,
    "address":"3301 5TH AVE S",
    "city":"TEXAS CITY",
    "state":"TX",
    "zipcode":77590,
    "latitude":29.379202,
    "longitude":-94.94478,
    "total_release":906,
    "radius":1
  },
  {
    "facility":"OCCIDENTAL CHEMICAL HOLDING CORP - GEISMAR PLANT",
    "year":2012,
    "address":"8318 ASHLAND RD",
    "city":"GEISMAR",
    "state":"LA",
    "zipcode":70734,
    "latitude":30.197397,
    "longitude":-90.965052,
    "total_release":915.71,
    "radius":1
  },
  {
    "facility":"KEYSOR-CENTURY CORP.",
    "year":1995,
    "address":"26000 SPRINGBROOK AVE.",
    "city":"SAUGUS",
    "state":"CA",
    "zipcode":91350,
    "latitude":34.415376,
    "longitude":-118.539258,
    "total_release":920,
    "radius":1
  },
  {
    "facility":"KEYSOR-CENTURY CORP.",
    "year":1998,
    "address":"26000 SPRINGBROOK AVE.",
    "city":"SAUGUS",
    "state":"CA",
    "zipcode":91350,
    "latitude":34.415376,
    "longitude":-118.539258,
    "total_release":920,
    "radius":1
  },
  {
    "facility":"OCCIDENTAL CHEMICAL CORP",
    "year":2005,
    "address":"4133 HWY 361",
    "city":"GREGORY",
    "state":"TX",
    "zipcode":78359,
    "latitude":27.915007,
    "longitude":-97.277867,
    "total_release":921,
    "radius":1
  },
  {
    "facility":"THE DOW CHEMICAL CO",
    "year":1990,
    "address":"1790 BUILDING",
    "city":"MIDLAND",
    "state":"MI",
    "zipcode":48667,
    "latitude":43.6084,
    "longitude":-84.238911,
    "total_release":923,
    "radius":1
  },
  {
    "facility":"BAYER CROPSCIENCE",
    "year":1992,
    "address":"8400 HAWTHORN RD",
    "city":"KANSAS CITY",
    "state":"MO",
    "zipcode":641200013,
    "latitude":39.121834,
    "longitude":-94.478735,
    "total_release":926,
    "radius":1
  },
  {
    "facility":"COLORITE SPECIALTY RESINS",
    "year":2009,
    "address":"BEVERLY RD",
    "city":"BURLINGTON",
    "state":"NJ",
    "zipcode":8016,
    "latitude":40.066694,
    "longitude":-74.883264,
    "total_release":927,
    "radius":1
  },
  {
    "facility":"KEYSOR-CENTURY CORP.",
    "year":1994,
    "address":"26000 SPRINGBROOK AVE.",
    "city":"SAUGUS",
    "state":"CA",
    "zipcode":91350,
    "latitude":34.415376,
    "longitude":-118.539258,
    "total_release":927,
    "radius":1
  },
  {
    "facility":"DUPONT CORPUS CHRISTI PLANT",
    "year":2014,
    "address":"HWY 361",
    "city":"GREGORY",
    "state":"TX",
    "zipcode":78359,
    "latitude":27.922244,
    "longitude":-97.289991,
    "total_release":939.774,
    "radius":1
  },
  {
    "facility":"THE DOW CHEMICAL CO",
    "year":2001,
    "address":"1790 BUILDING",
    "city":"MIDLAND",
    "state":"MI",
    "zipcode":48667,
    "latitude":43.6084,
    "longitude":-84.238911,
    "total_release":969,
    "radius":1
  },
  {
    "facility":"DUPONT CORPUS CHRISTI PLANT",
    "year":2013,
    "address":"HWY 361",
    "city":"GREGORY",
    "state":"TX",
    "zipcode":78359,
    "latitude":27.922244,
    "longitude":-97.289991,
    "total_release":973.8,
    "radius":1
  },
  {
    "facility":"DUPONT CORPUS CHRISTI PLANT",
    "year":2011,
    "address":"HWY 361",
    "city":"GREGORY",
    "state":"TX",
    "zipcode":78359,
    "latitude":27.922244,
    "longitude":-97.289991,
    "total_release":978,
    "radius":1
  },
  {
    "facility":"DUPONT CORPUS CHRISTI PLANT",
    "year":2012,
    "address":"HWY 361",
    "city":"GREGORY",
    "state":"TX",
    "zipcode":78359,
    "latitude":27.922244,
    "longitude":-97.289991,
    "total_release":979,
    "radius":1
  },
  {
    "facility":"KEYSOR-CENTURY CORP.",
    "year":1999,
    "address":"26000 SPRINGBROOK AVE.",
    "city":"SAUGUS",
    "state":"CA",
    "zipcode":91350,
    "latitude":34.415376,
    "longitude":-118.539258,
    "total_release":980,
    "radius":1
  },
  {
    "facility":"KEYSOR-CENTURY CORP.",
    "year":2000,
    "address":"26000 SPRINGBROOK AVE.",
    "city":"SAUGUS",
    "state":"CA",
    "zipcode":91350,
    "latitude":34.415376,
    "longitude":-118.539258,
    "total_release":980,
    "radius":1
  },
  {
    "facility":"POLYONE CORP",
    "year":1998,
    "address":"MOORE & WALKER RD",
    "city":"AVON LAKE",
    "state":"OH",
    "zipcode":44012,
    "latitude":41.493381,
    "longitude":-82.046966,
    "total_release":985,
    "radius":1
  },
  {
    "facility":"OXY VINYLS L.P. DEER PARK PVC PLANT",
    "year":1989,
    "address":"1105 TIDAL RD.",
    "city":"DEER PARK",
    "state":"TX",
    "zipcode":77536,
    "latitude":29.731331,
    "longitude":95.10771,
    "total_release":1000,
    "radius":2
  },
  {
    "facility":"HERITAGE THERMAL SERVICES",
    "year":1998,
    "address":"1250 ST GEORGE ST",
    "city":"EAST LIVERPOOL",
    "state":"OH",
    "zipcode":439205915,
    "latitude":40.632023,
    "longitude":-80.547388,
    "total_release":1001,
    "radius":2
  },
  {
    "facility":"OCCIDENTAL CHEMICAL HOLDING CORP - GEISMAR PLANT",
    "year":2010,
    "address":"8318 ASHLAND RD",
    "city":"GEISMAR",
    "state":"LA",
    "zipcode":70734,
    "latitude":30.197397,
    "longitude":-90.965052,
    "total_release":1020.85,
    "radius":2
  },
  {
    "facility":"DUPONT CORPUS CHRISTI PLANT",
    "year":2003,
    "address":"HWY 361",
    "city":"GREGORY",
    "state":"TX",
    "zipcode":78359,
    "latitude":27.922244,
    "longitude":-97.289991,
    "total_release":1024,
    "radius":2
  },
  {
    "facility":"DUPONT CORPUS CHRISTI PLANT",
    "year":2006,
    "address":"HWY 361",
    "city":"GREGORY",
    "state":"TX",
    "zipcode":78359,
    "latitude":27.922244,
    "longitude":-97.289991,
    "total_release":1024,
    "radius":2
  },
  {
    "facility":"DUPONT CORPUS CHRISTI PLANT",
    "year":2009,
    "address":"HWY 361",
    "city":"GREGORY",
    "state":"TX",
    "zipcode":78359,
    "latitude":27.922244,
    "longitude":-97.289991,
    "total_release":1024,
    "radius":2
  },
  {
    "facility":"DUPONT CORPUS CHRISTI PLANT",
    "year":2002,
    "address":"HWY 361",
    "city":"GREGORY",
    "state":"TX",
    "zipcode":78359,
    "latitude":27.922244,
    "longitude":-97.289991,
    "total_release":1025,
    "radius":2
  },
  {
    "facility":"DUPONT CORPUS CHRISTI PLANT",
    "year":2005,
    "address":"HWY 361",
    "city":"GREGORY",
    "state":"TX",
    "zipcode":78359,
    "latitude":27.922244,
    "longitude":-97.289991,
    "total_release":1025,
    "radius":2
  },
  {
    "facility":"DUPONT CORPUS CHRISTI PLANT",
    "year":2008,
    "address":"HWY 361",
    "city":"GREGORY",
    "state":"TX",
    "zipcode":78359,
    "latitude":27.922244,
    "longitude":-97.289991,
    "total_release":1025,
    "radius":2
  },
  {
    "facility":"DUPONT CORPUS CHRISTI PLANT",
    "year":2010,
    "address":"HWY 361",
    "city":"GREGORY",
    "state":"TX",
    "zipcode":78359,
    "latitude":27.922244,
    "longitude":-97.289991,
    "total_release":1025,
    "radius":2
  },
  {
    "facility":"DUPONT CORPUS CHRISTI PLANT",
    "year":2004,
    "address":"HWY 361",
    "city":"GREGORY",
    "state":"TX",
    "zipcode":78359,
    "latitude":27.922244,
    "longitude":-97.289991,
    "total_release":1026,
    "radius":2
  },
  {
    "facility":"DUPONT CORPUS CHRISTI PLANT",
    "year":2007,
    "address":"HWY 361",
    "city":"GREGORY",
    "state":"TX",
    "zipcode":78359,
    "latitude":27.922244,
    "longitude":-97.289991,
    "total_release":1027,
    "radius":2
  },
  {
    "facility":"OCCIDENTAL CHEMICAL CORP",
    "year":1996,
    "address":"4133 HWY 361",
    "city":"GREGORY",
    "state":"TX",
    "zipcode":78359,
    "latitude":27.915007,
    "longitude":-97.277867,
    "total_release":1030,
    "radius":2
  },
  {
    "facility":"BAYER CROPSCIENCE",
    "year":1991,
    "address":"8400 HAWTHORN RD",
    "city":"KANSAS CITY",
    "state":"MO",
    "zipcode":641200013,
    "latitude":39.121834,
    "longitude":-94.478735,
    "total_release":1038,
    "radius":2
  },
  {
    "facility":"OXY VINYLS L.P. DEER PARK PVC PLANT",
    "year":1990,
    "address":"1105 TIDAL RD.",
    "city":"DEER PARK",
    "state":"TX",
    "zipcode":77536,
    "latitude":29.731331,
    "longitude":95.10771,
    "total_release":1040,
    "radius":2
  },
  {
    "facility":"BAYER CROPSCIENCE",
    "year":1989,
    "address":"8400 HAWTHORN RD",
    "city":"KANSAS CITY",
    "state":"MO",
    "zipcode":641200013,
    "latitude":39.121834,
    "longitude":-94.478735,
    "total_release":1050,
    "radius":2
  },
  {
    "facility":"HERITAGE THERMAL SERVICES",
    "year":2000,
    "address":"1250 ST GEORGE ST",
    "city":"EAST LIVERPOOL",
    "state":"OH",
    "zipcode":439205915,
    "latitude":40.632023,
    "longitude":-80.547388,
    "total_release":1050,
    "radius":2
  },
  {
    "facility":"GEORGIA GULF LAKE CHARLES LLC",
    "year":2001,
    "address":"1600 VCM PLANT RD",
    "city":"WESTLAKE",
    "state":"LA",
    "zipcode":70669,
    "latitude":30.24955,
    "longitude":-93.287538,
    "total_release":1068,
    "radius":2
  },
  {
    "facility":"THE DOW CHEMICAL CO",
    "year":2005,
    "address":"1790 BUILDING",
    "city":"MIDLAND",
    "state":"MI",
    "zipcode":48667,
    "latitude":43.6084,
    "longitude":-84.238911,
    "total_release":1070,
    "radius":2
  },
  {
    "facility":"CERTAINTEED CORP",
    "year":2006,
    "address":"3300 PETE MANENA RD",
    "city":"WESTLAKE",
    "state":"LA",
    "zipcode":70669,
    "latitude":30.228339,
    "longitude":-93.298407,
    "total_release":1090,
    "radius":2
  },
  {
    "facility":"OCCIDENTAL CHEMICAL HOLDING CORP - GEISMAR PLANT",
    "year":1991,
    "address":"8318 ASHLAND RD",
    "city":"GEISMAR",
    "state":"LA",
    "zipcode":70734,
    "latitude":30.197397,
    "longitude":-90.965052,
    "total_release":1090,
    "radius":2
  },
  {
    "facility":"OCCIDENTAL CHEMICAL CORP",
    "year":2004,
    "address":"4133 HWY 361",
    "city":"GREGORY",
    "state":"TX",
    "zipcode":78359,
    "latitude":27.915007,
    "longitude":-97.277867,
    "total_release":1118,
    "radius":2
  },
  {
    "facility":"POLYONE CORP",
    "year":1997,
    "address":"MOORE & WALKER RD",
    "city":"AVON LAKE",
    "state":"OH",
    "zipcode":44012,
    "latitude":41.493381,
    "longitude":-82.046966,
    "total_release":1179,
    "radius":2
  },
  {
    "facility":"BAYER CROPSCIENCE",
    "year":1996,
    "address":"8400 HAWTHORN RD",
    "city":"KANSAS CITY",
    "state":"MO",
    "zipcode":641200013,
    "latitude":39.121834,
    "longitude":-94.478735,
    "total_release":1196,
    "radius":2
  },
  {
    "facility":"EAGLE US 2 LLC",
    "year":2002,
    "address":"1300 PPG DR",
    "city":"WESTLAKE",
    "state":"LA",
    "zipcode":70669,
    "latitude":30.230265,
    "longitude":-93.286337,
    "total_release":1270,
    "radius":2
  },
  {
    "facility":"BAYER CROPSCIENCE",
    "year":1988,
    "address":"8400 HAWTHORN RD",
    "city":"KANSAS CITY",
    "state":"MO",
    "zipcode":641200013,
    "latitude":39.121834,
    "longitude":-94.478735,
    "total_release":1280,
    "radius":2
  },
  {
    "facility":"EAGLE US 2 LLC",
    "year":2005,
    "address":"1300 PPG DR",
    "city":"WESTLAKE",
    "state":"LA",
    "zipcode":70669,
    "latitude":30.230265,
    "longitude":-93.286337,
    "total_release":1280,
    "radius":2
  },
  {
    "facility":"GEORGIA GULF CHEMICALS & VINYLS LLC",
    "year":2008,
    "address":"5200 SE 59TH ST",
    "city":"OKLAHOMA CITY",
    "state":"OK",
    "zipcode":731354536,
    "latitude":35.403063,
    "longitude":-97.429964,
    "total_release":1310,
    "radius":2
  },
  {
    "facility":"OXY VINYLS LP LOUISVILLE",
    "year":2004,
    "address":"4014 BELLS LN",
    "city":"LOUISVILLE",
    "state":"KY",
    "zipcode":40211,
    "latitude":38.222628,
    "longitude":-85.823588,
    "total_release":1311,
    "radius":2
  },
  {
    "facility":"BAYER CROPSCIENCE",
    "year":1990,
    "address":"8400 HAWTHORN RD",
    "city":"KANSAS CITY",
    "state":"MO",
    "zipcode":641200013,
    "latitude":39.121834,
    "longitude":-94.478735,
    "total_release":1313,
    "radius":2
  },
  {
    "facility":"BAYER CROPSCIENCE",
    "year":1994,
    "address":"8400 HAWTHORN RD",
    "city":"KANSAS CITY",
    "state":"MO",
    "zipcode":641200013,
    "latitude":39.121834,
    "longitude":-94.478735,
    "total_release":1320,
    "radius":2
  },